City_ID,City,Country,Date,Lat,Lng,Max Temp,Humidity,Cloudiness,Wind Speed
0,Bethel,US,2021-05-17 13:11:10,41.3712,-73.414,63.0,55,1,3.67
1,Busselton,AU,2021-05-17 13:11:10,-33.65,115.3333,60.01,95,7,8.52
2,Arraial Do Cabo,BR,2021-05-17 13:11:11,-22.9661,-42.0278,77.0,61,0,8.05
3,Araouane,ML,2021-05-17 13:11:12,18.9048,-3.5265,112.24,7,17,8.48
4,Faanui,PF,2021-05-17 13:11:12,-16.4833,-151.75,80.51,75,24,14.97
5,Bengkulu,ID,2021-05-17 13:11:12,-3.8004,102.2655,78.66,87,100,5.68
6,Bredasdorp,ZA,2021-05-17 13:11:13,-34.5322,20.0403,64.4,55,40,5.75
7,Port Alfred,ZA,2021-05-17 13:11:13,-33.5906,26.891,63.91,71,26,18.88
8,Bluff,NZ,2021-05-17 13:11:13,-46.6,168.3333,43.0,84,64,7.0
9,Minot,US,2021-05-17 13:10:01,48.2325,-101.2963,64.4,59,1,8.05
10,Mackay,AU,2021-05-17 13:11:14,-21.15,149.2,60.8,82,40,6.91
11,Kavieng,PG,2021-05-17 13:11:14,-2.5744,150.7967,83.23,79,97,17.56
12,Rayevskiy,RU,2021-05-17 13:11:15,54.0658,54.9468,83.53,36,67,7.72
13,Tuatapere,NZ,2021-05-17 13:11:15,-46.1333,167.6833,43.0,84,84,7.0
14,Kapaa,US,2021-05-17 13:11:16,22.0752,-159.319,69.8,88,75,16.11
15,Rikitea,PF,2021-05-17 13:11:16,-23.1203,-134.9692,74.14,63,66,4.99
16,Berlevag,NO,2021-05-17 13:11:17,70.8578,29.0864,41.0,93,75,5.75
17,Mataura,NZ,2021-05-17 13:11:17,-46.1927,168.8643,43.0,84,30,7.0
18,Kungurtug,RU,2021-05-17 13:11:18,50.5994,97.5228,44.91,91,100,3.53
19,Dikson,RU,2021-05-17 13:11:18,73.5069,80.5464,25.61,80,39,5.86
20,Port Lincoln,AU,2021-05-17 13:11:18,-34.7333,135.8667,56.53,62,0,6.96
21,Punta Arenas,CL,2021-05-17 13:07:00,-53.15,-70.9167,44.6,87,90,17.27
22,Hermanus,ZA,2021-05-17 13:11:19,-34.4187,19.2345,64.0,63,10,1.99
23,Valera,VE,2021-05-17 13:11:20,9.3178,-70.6036,80.24,68,65,1.41
24,Surt,LY,2021-05-17 13:11:20,31.2089,16.5887,83.44,32,9,10.63
25,Vaini,TO,2021-05-17 13:11:21,-21.2,-175.2,77.0,94,40,6.91
26,Yellowknife,CA,2021-05-17 13:10:42,62.456,-114.3525,30.2,69,75,12.66
27,Mount Gambier,AU,2021-05-17 13:11:21,-37.8333,140.7667,51.8,93,90,6.91
28,Cape Town,ZA,2021-05-17 13:11:22,-33.9258,18.4232,64.0,48,40,3.44
29,Salinopolis,BR,2021-05-17 13:11:23,-0.6136,-47.3561,79.29,87,100,8.46
30,Ribeira Grande,PT,2021-05-17 13:11:23,38.5167,-28.7,68.0,77,40,17.27
31,Paso De Carrasco,UY,2021-05-17 13:11:24,-34.8603,-56.0522,55.4,100,20,6.91
32,Karratha,AU,2021-05-17 13:11:24,-20.7377,116.8463,76.1,47,98,4.61
33,Ilulissat,GL,2021-05-17 13:11:25,69.2167,-51.1,33.8,75,40,5.75
34,Kihei,US,2021-05-17 13:11:26,20.785,-156.4656,69.8,83,75,8.05
35,San Carlos,VE,2021-05-17 13:09:42,9.6612,-68.5827,83.66,58,63,6.42
36,Albany,US,2021-05-17 13:11:26,42.6001,-73.9662,63.0,55,7,2.86
37,Fort Nelson,CA,2021-05-17 13:11:27,58.8053,-122.7002,35.6,100,75,4.61
38,Bauta,CU,2021-05-17 13:11:27,22.9828,-82.5464,78.8,73,20,6.91
39,Zehdenick,DE,2021-05-17 13:11:28,52.9785,13.3317,69.01,45,98,1.01
40,Constitucion,CL,2021-05-17 13:11:29,-35.3333,-72.4167,57.42,50,100,3.76
41,Hailun,CN,2021-05-17 13:11:29,47.45,126.9333,65.52,37,97,8.23
42,Barrow,US,2021-05-17 13:11:30,71.2906,-156.7887,26.6,86,90,6.91
43,Meulaboh,ID,2021-05-17 13:11:30,4.1363,96.1285,77.27,90,100,8.93
44,Pevek,RU,2021-05-17 13:11:31,69.7008,170.3133,26.42,85,84,9.62
45,Tuktoyaktuk,CA,2021-05-17 13:11:32,69.4541,-133.0374,15.8,93,25,10.71
46,Alto Lucero,MX,2021-05-17 13:11:32,19.6167,-96.7167,71.13,80,0,3.13
47,Rio Gallegos,AR,2021-05-17 13:11:33,-51.6226,-69.2181,46.4,81,75,9.22
48,Souillac,MU,2021-05-17 13:11:33,-20.5167,57.5167,80.6,65,40,13.8
49,Nanortalik,GL,2021-05-17 13:11:33,60.1432,-45.2371,38.34,69,65,3.44
50,Victoria,HK,2021-05-17 13:09:17,22.2855,114.1577,87.01,81,100,1.01
51,Nikolskoye,RU,2021-05-17 13:11:34,59.7035,30.7861,77.0,33,0,17.9
52,Ponta Do Sol,PT,2021-05-17 13:11:34,32.6667,-17.1,73.4,56,20,19.57
53,Zhigansk,RU,2021-05-17 13:11:35,66.7697,123.3711,39.88,85,98,12.8
54,Crib Point,AU,2021-05-17 13:11:35,-38.35,145.2,51.01,84,100,8.55
55,Petukhovo,RU,2021-05-17 13:11:36,55.0692,67.9019,86.95,22,19,14.74
56,Puerto Ayora,EC,2021-05-17 13:11:36,-0.7393,-90.3518,75.99,92,44,3.0
57,New Norfolk,AU,2021-05-17 13:11:37,-42.7826,147.0587,50.0,77,73,3.0
58,Porto Empedocle,IT,2021-05-17 13:11:37,37.2934,13.5264,88.0,73,0,8.05
59,Itamaraju,BR,2021-05-17 13:11:38,-17.0392,-39.5311,78.46,58,24,4.56
60,Ushuaia,AR,2021-05-17 13:11:31,-54.8,-68.3,46.4,53,75,19.57
61,Zhanaozen,KZ,2021-05-17 13:11:39,43.3,52.8,91.78,6,0,20.13
62,Castro,BR,2021-05-17 13:11:39,-24.7911,-50.0119,63.7,69,0,5.39
63,Havre-Saint-Pierre,CA,2021-05-17 13:11:39,50.2334,-63.5986,42.8,93,90,5.75
64,Uusikaupunki,FI,2021-05-17 13:11:40,60.8004,21.4084,59.0,88,75,9.22
65,Hilotongan,PH,2021-05-17 13:11:41,11.144,123.6426,84.67,76,86,11.43
66,Hilo,US,2021-05-17 13:11:41,19.7297,-155.09,73.4,73,40,4.61
67,Pisco,PE,2021-05-17 13:11:42,-13.7,-76.2167,63.0,88,75,3.44
68,Esperance,AU,2021-05-17 13:11:42,-33.8667,121.9,62.6,51,19,12.66
69,Pyinmana,MM,2021-05-17 13:11:42,19.7333,96.2167,91.33,40,100,5.21
70,Tilichiki,RU,2021-05-17 13:11:43,60.4667,166.1,31.06,99,100,8.25
71,Pacific Grove,US,2021-05-17 13:11:43,36.6177,-121.9166,52.0,87,84,3.09
72,Saldanha,ZA,2021-05-17 13:11:44,-33.0117,17.9442,66.2,45,0,1.14
73,San Lorenzo,PY,2021-05-17 13:09:41,-25.3333,-57.5333,73.4,73,40,2.3
74,Talnakh,RU,2021-05-17 13:11:44,69.4865,88.3972,21.52,91,83,6.58
75,Xichang,CN,2021-05-17 13:11:45,27.8964,102.2634,69.01,59,50,5.55
76,Liverpool,GB,2021-05-17 13:09:46,53.4106,-2.9779,57.2,67,40,18.41
77,Hobart,AU,2021-05-17 13:11:45,-42.8794,147.3294,50.0,57,20,9.22
78,Maibong,IN,2021-05-17 13:11:46,25.3,93.1667,77.4,76,75,1.59
79,Iqaluit,CA,2021-05-17 13:11:47,63.7506,-68.5145,17.6,79,75,4.61
80,Hovd,MN,2021-05-17 13:11:47,48.0056,91.6419,66.83,22,61,8.46
81,Lumphat,KH,2021-05-17 13:11:47,13.4878,106.9816,85.1,65,100,2.46
82,Lagoa,PT,2021-05-17 13:11:48,39.05,-27.9833,60.93,81,100,12.91
83,Khatanga,RU,2021-05-17 13:11:48,71.9667,102.5,18.75,94,100,7.34
84,Puerto Lempira,HN,2021-05-17 13:11:49,15.2667,-83.7667,75.2,94,75,4.59
85,Jamestown,US,2021-05-17 13:11:49,42.097,-79.2353,57.99,67,1,13.8
86,Lipari,IT,2021-05-17 13:11:50,38.4674,14.954,75.0,64,10,1.99
87,Katsuura,JP,2021-05-17 13:11:50,35.1333,140.3,75.0,94,90,14.97
88,Corinto,GR,2021-05-17 13:11:21,37.9407,22.9573,79.0,49,30,1.01
89,Yenagoa,NG,2021-05-17 13:11:51,4.9247,6.2642,86.43,69,97,1.99
90,Kollam,IN,2021-05-17 13:11:51,8.8833,76.6,87.8,74,40,5.75
91,Saeby,DK,2021-05-17 13:11:52,57.3319,10.5225,51.01,93,40,8.05
92,Guatire,VE,2021-05-17 13:11:53,10.4762,-66.5427,78.8,83,40,4.61
93,Greenville,US,2021-05-17 13:11:53,35.6127,-77.3663,68.0,68,1,2.93
94,Butaritari,KI,2021-05-17 13:11:54,3.0707,172.7902,83.46,78,24,18.79
95,Ayutla,MX,2021-05-17 13:11:54,20.1167,-104.3333,65.21,65,0,1.54
96,Batemans Bay,AU,2021-05-17 13:08:57,-35.7167,150.1833,46.99,79,18,3.0
97,Kununurra,AU,2021-05-17 13:11:55,-15.7667,128.7333,60.8,67,0,7.45
98,Lasa,IT,2021-05-17 13:11:55,46.6166,10.7002,71.6,81,40,5.75
99,Hithadhoo,MV,2021-05-17 13:11:56,-0.6,73.0833,84.83,69,48,7.31
100,Renfrew,GB,2021-05-17 13:11:56,55.872,-4.3925,55.4,58,40,8.05
101,Byron Bay,AU,2021-05-17 13:11:56,-28.65,153.6167,55.4,76,89,8.05
102,Los Llanos De Aridane,ES,2021-05-17 13:11:57,28.6585,-17.9182,71.6,73,20,16.11
103,Upernavik,GL,2021-05-17 13:11:57,72.7868,-56.1549,32.05,85,99,4.32
104,Roald,NO,2021-05-17 13:11:58,62.5833,6.1333,54.0,76,20,9.22
105,Atuona,PF,2021-05-17 13:11:58,-9.8,-139.0333,79.09,72,93,11.05
106,Avarua,CK,2021-05-17 13:10:53,-21.2078,-159.775,75.2,78,75,10.36
107,Ahipara,NZ,2021-05-17 13:11:59,-35.1667,173.1667,60.84,66,45,13.87
108,Iquitos,PE,2021-05-17 13:11:59,-3.7481,-73.2472,77.0,88,75,3.44
109,Provideniya,RU,2021-05-17 13:12:00,64.3833,-173.3,30.79,88,100,3.13
110,Samarai,PG,2021-05-17 13:12:00,-10.6167,150.6667,81.52,84,87,12.19
111,Elmina,GH,2021-05-17 13:12:01,5.0898,-1.348,85.96,67,100,11.7
112,Kaitangata,NZ,2021-05-17 13:12:01,-46.2817,169.8464,44.01,81,5,4.0
113,Rive-De-Gier,FR,2021-05-17 13:12:01,45.5307,4.6213,64.0,44,35,2.3
114,Severo-Kurilsk,RU,2021-05-17 13:12:02,50.6789,156.125,38.26,98,98,1.88
115,Saint-Leu,RE,2021-05-17 13:12:02,-21.15,55.2833,80.6,65,0,4.61
116,Kupang,ID,2021-05-17 13:12:03,-10.1667,123.5833,78.8,73,20,8.05
117,Lebu,CL,2021-05-17 13:12:03,-37.6167,-73.65,52.7,60,100,4.36
118,Oistins,BB,2021-05-17 13:12:04,13.0667,-59.5333,86.0,58,40,20.71
119,Tombouctou,ML,2021-05-17 13:12:04,20.0,-3.0,112.12,7,61,6.11
120,Paka,MY,2021-05-17 13:12:05,4.6374,103.4368,80.6,83,100,2.3
121,Acarau,BR,2021-05-17 13:07:39,-2.8856,-40.12,82.74,70,7,12.55
122,Lompoc,US,2021-05-17 13:12:06,34.6391,-120.4579,53.6,82,82,4.61
123,Beringovskiy,RU,2021-05-17 13:12:06,63.05,179.3167,30.94,97,100,2.08
124,Alice Springs,AU,2021-05-17 13:12:07,-23.7,133.8833,46.4,36,0,6.91
125,Aden,YE,2021-05-17 13:12:07,12.7794,45.0367,89.92,65,6,8.79
126,Champawat,IN,2021-05-17 13:12:08,29.3333,80.1,74.23,32,100,4.27
127,Natal,BR,2021-05-17 13:11:02,-5.795,-35.2094,82.4,74,40,13.8
128,Chokurdakh,RU,2021-05-17 13:12:08,70.6333,147.9167,27.99,92,77,13.2
129,Matara,LK,2021-05-17 13:12:09,5.9485,80.5353,82.71,79,10,10.54
130,Port Elizabeth,ZA,2021-05-17 13:12:09,-33.918,25.5701,66.2,55,0,17.27
131,Shirokiy,RU,2021-05-17 13:12:09,49.758,129.523,58.39,59,100,6.98
132,Beloha,MG,2021-05-17 13:12:10,-25.1667,45.05,80.29,38,4,12.17
133,Garoua,CM,2021-05-17 13:12:10,9.3,13.4,93.2,55,20,8.05
134,Qaanaaq,GL,2021-05-17 13:12:11,77.484,-69.3632,27.93,85,99,1.39
135,Ambilobe,MG,2021-05-17 13:12:11,-13.2,49.05,85.24,56,27,5.3
136,Vardo,NO,2021-05-17 13:12:12,70.3705,31.1107,39.2,93,75,5.75
137,Chara,RU,2021-05-17 13:12:12,56.9064,118.2631,29.39,80,100,7.11
138,Puerto Carreno,CO,2021-05-17 13:12:13,6.189,-67.4859,79.07,81,100,1.3
139,Narsaq,GL,2021-05-17 13:12:13,60.9167,-46.05,42.8,42,20,5.75
140,Vaitape,PF,2021-05-17 13:12:14,-16.5167,-151.75,80.51,75,27,15.01
141,Ponta Delgada,PT,2021-05-17 13:12:14,37.7333,-25.6667,66.2,94,75,19.57
142,Peniche,PT,2021-05-17 13:12:15,39.3558,-9.3811,70.0,50,31,5.99
143,Clyde River,CA,2021-05-17 13:12:15,70.4692,-68.5914,19.4,79,90,16.11
144,Muzhi,RU,2021-05-17 13:12:16,65.3667,64.6667,45.81,58,100,8.43
145,Panaba,MX,2021-05-17 13:12:16,21.2833,-88.2667,77.83,81,100,8.5
146,Geraldton,AU,2021-05-17 13:12:17,-28.7667,114.6,69.8,83,75,6.91
147,Acari,PE,2021-05-17 13:12:18,-15.4311,-74.6158,74.17,50,40,2.93
148,Oranjemund,NA,2021-05-17 13:12:18,-28.55,16.4333,66.85,56,0,12.08
149,Grass Valley,US,2021-05-17 13:12:19,39.2191,-121.0611,55.4,76,1,2.8
150,Airai,TL,2021-05-17 13:12:19,-8.9266,125.4092,58.62,90,100,2.62
151,Tabou,CI,2021-05-17 13:12:20,4.423,-7.3528,81.61,81,100,7.52
152,Payo,ID,2021-05-17 13:12:20,-3.7508,103.6372,75.7,96,100,1.97
153,Coquimbo,CL,2021-05-17 13:12:21,-29.9533,-71.3436,53.6,94,90,3.44
154,Asau,RO,2021-05-17 13:12:21,46.4333,26.4,71.6,49,20,3.44
155,Petropavlovsk-Kamchatskiy,RU,2021-05-17 13:12:22,53.0452,158.6483,39.2,87,75,2.24
156,Amapa,BR,2021-05-17 13:12:22,1.0,-52.0,72.59,99,100,0.65
157,Grand-Santi,GF,2021-05-17 13:12:22,4.25,-54.3833,78.1,89,82,1.19
158,Nosy Varika,MG,2021-05-17 13:12:23,-20.5833,48.5333,78.58,71,2,10.42
159,Gornopravdinsk,RU,2021-05-17 13:12:23,60.05,69.9,62.02,84,100,4.5
160,Touros,BR,2021-05-17 13:12:24,-5.1989,-35.4608,82.4,69,40,9.22
161,Hauterive,FR,2021-05-17 13:12:24,46.0901,3.4459,59.0,55,75,18.41
162,Aras,ES,2021-05-17 13:12:25,42.5617,-2.356,66.99,39,40,4.61
163,Isla Vista,US,2021-05-17 13:12:25,34.4133,-119.861,55.0,87,40,3.91
164,Tasiilaq,GL,2021-05-17 13:12:26,65.6145,-37.6368,32.0,74,1,2.3
165,Kamenka,RU,2021-05-17 13:12:26,51.3223,42.7678,80.91,40,99,15.21
166,Aklavik,CA,2021-05-17 13:12:27,68.2191,-135.0107,37.4,60,67,8.05
167,Maragogi,BR,2021-05-17 13:08:17,-9.0122,-35.2225,81.59,64,27,9.53
168,Carnarvon,AU,2021-05-17 13:12:28,-24.8667,113.6333,71.6,88,100,5.75
169,Mahebourg,MU,2021-05-17 13:12:28,-20.4081,57.7,80.6,65,40,13.8
170,Srednekolymsk,RU,2021-05-17 13:12:29,67.45,153.6833,32.94,91,99,5.08
171,Torbay,CA,2021-05-17 13:12:29,47.6666,-52.7314,44.01,70,40,9.22
172,Manono,CD,2021-05-17 13:12:30,-7.3,27.4167,90.34,33,100,7.27
173,Saint-Francois,FR,2021-05-17 13:12:30,46.4154,3.9054,57.2,72,75,13.8
174,Padang,ID,2021-05-17 13:12:31,-0.9492,100.3543,78.8,94,75,4.61
175,Ferme-Neuve,CA,2021-05-17 13:12:31,46.7001,-75.4493,53.6,71,8,3.04
176,Fare,PF,2021-05-17 13:12:32,-16.7,-151.0167,82.29,67,22,15.23
177,Camacha,PT,2021-05-17 13:12:32,33.0833,-16.3333,73.4,56,40,10.36
178,Tautira,PF,2021-05-17 13:12:33,-17.7333,-149.15,77.0,88,40,5.75
179,College,US,2021-05-17 13:07:58,64.8569,-147.8028,44.6,93,75,3.44
180,Tarancon,ES,2021-05-17 13:12:33,40.0085,-3.0073,73.99,36,8,7.47
181,Tavricheskoye,RU,2021-05-17 13:12:34,54.5851,73.6395,89.6,12,75,11.18
182,Kruisfontein,ZA,2021-05-17 13:12:34,-34.0033,24.7314,66.0,53,0,10.0
183,Cabo San Lucas,MX,2021-05-17 13:08:41,22.8909,-109.9124,73.4,46,1,11.5
184,San Patricio,US,2021-05-17 13:12:35,28.017,-97.5169,78.01,94,90,10.36
185,Rosita,NI,2021-05-17 13:12:35,13.9268,-84.4032,77.27,82,100,2.01
186,Tiksi,RU,2021-05-17 13:12:36,71.6872,128.8694,32.11,94,100,12.3
187,Mahajanga,MG,2021-05-17 13:12:36,-15.7167,46.3167,89.6,37,20,6.91
188,Saint-Philippe,RE,2021-05-17 13:12:37,-21.3585,55.7679,80.6,65,0,4.61
189,Sitka,US,2021-05-17 13:12:37,57.0531,-135.33,37.4,87,40,3.02
190,Saskylakh,RU,2021-05-17 13:12:38,71.9167,114.0833,25.77,93,100,20.2
191,Dingle,PH,2021-05-17 13:12:38,10.9995,122.6711,81.25,80,95,7.02
192,Salym,RU,2021-05-17 13:12:39,60.0625,71.4789,58.48,92,100,12.28
193,Vila Franca Do Campo,PT,2021-05-17 13:12:39,37.7167,-25.4333,66.2,94,75,19.57
194,Namatanai,PG,2021-05-17 13:12:40,-3.6667,152.4333,80.44,79,74,10.47
195,Itaituba,BR,2021-05-17 13:10:25,-4.2761,-55.9836,80.6,89,75,4.0
196,Diu,IN,2021-05-17 13:12:41,20.7141,70.9822,77.25,91,100,71.0
197,Cidreira,BR,2021-05-17 13:12:41,-30.1811,-50.2056,62.96,80,63,10.87
198,Jalu,LY,2021-05-17 13:12:42,29.0331,21.5482,91.33,16,6,8.77
199,Kahului,US,2021-05-17 13:12:42,20.8947,-156.47,69.8,83,75,8.05
200,Lorengau,PG,2021-05-17 13:12:43,-2.0226,147.2712,81.77,80,88,9.44
201,Muisne,EC,2021-05-17 13:12:43,0.6,-80.0333,77.0,100,75,2.3
202,San Cristobal,VE,2021-05-17 13:11:42,7.7669,-72.225,80.6,61,75,13.8
203,Upata,VE,2021-05-17 13:12:44,8.0086,-62.3989,80.28,64,100,6.85
204,Sambava,MG,2021-05-17 13:12:45,-14.2667,50.1667,80.49,67,20,11.5
205,Iki-Burul,RU,2021-05-17 13:12:45,45.8208,44.6472,89.6,10,0,31.32
206,Zaranj,AF,2021-05-17 13:12:46,30.9667,61.8833,100.4,8,0,9.22
207,Nuuk,GL,2021-05-17 13:12:46,64.1835,-51.7216,37.4,81,20,8.05
208,Porto Novo,BJ,2021-05-17 13:12:47,6.4965,2.6036,87.8,70,40,11.5
209,Najran,SA,2021-05-17 13:12:48,17.4924,44.1277,102.2,12,40,6.91
210,Pallasovka,RU,2021-05-17 13:12:48,50.05,46.8833,87.08,22,14,13.71
211,Haines Junction,CA,2021-05-17 13:12:49,60.7522,-137.5108,33.8,100,96,1.14
212,Wewak,PG,2021-05-17 13:12:49,-3.5534,143.6268,81.27,85,85,7.52
213,Okhotsk,RU,2021-05-17 13:12:50,59.3833,143.3,35.17,85,100,3.98
214,Smidovich,RU,2021-05-17 13:12:50,48.6,133.8167,60.15,52,9,10.51
215,Richards Bay,ZA,2021-05-17 13:12:51,-28.783,32.0377,68.52,73,87,7.23
216,Muhos,FI,2021-05-17 13:12:51,64.808,25.9931,71.6,37,0,12.66
217,Okha,RU,2021-05-17 13:12:52,53.5739,142.9478,34.65,86,100,7.27
218,Santa Maria,BR,2021-05-17 13:07:57,-29.6842,-53.8069,57.2,100,75,2.3
219,Grand Gaube,MU,2021-05-17 13:12:54,-20.0064,57.6608,79.0,66,2,7.0
220,Khandbari,NP,2021-05-17 13:12:55,27.3747,87.2039,75.0,68,100,3.65
221,Aykhal,RU,2021-05-17 13:12:55,66.0,111.5,21.87,94,100,20.62
222,Ndele,CF,2021-05-17 13:12:56,8.4109,20.6473,85.5,54,100,1.28
223,Ulladulla,AU,2021-05-17 13:12:56,-35.35,150.4667,53.01,66,90,6.91
224,Cherskiy,RU,2021-05-17 13:12:57,68.75,161.3,30.92,85,15,6.93
225,North Bend,US,2021-05-17 13:12:57,43.4065,-124.2243,50.0,93,90,2.01
226,Bomet,KE,2021-05-17 13:12:57,-0.7813,35.3416,61.57,94,100,3.27
227,Sao Filipe,CV,2021-05-17 13:12:58,14.8961,-24.4956,75.38,69,77,13.65
228,Kulhudhuffushi,MV,2021-05-17 13:12:58,6.6221,73.07,84.63,74,6,16.89
229,Melilla,ES,2021-05-17 13:12:59,35.2937,-2.9383,87.8,36,0,12.66
230,Bambous Virieux,MU,2021-05-17 13:12:59,-20.3428,57.7575,80.6,65,40,13.8
231,Margate,GB,2021-05-17 13:13:00,51.3813,1.3862,60.01,60,80,1.99
232,Abha,SA,2021-05-17 13:13:00,18.2164,42.5053,84.2,23,20,6.91
233,Poya,NC,2021-05-17 13:13:01,-21.35,165.15,72.09,80,64,6.73
234,Vila Velha,BR,2021-05-17 13:10:09,-20.3297,-40.2925,77.0,61,40,4.61
235,Sumbe,AO,2021-05-17 13:13:01,-11.2061,13.8437,82.4,64,0,6.91
236,Ende,ID,2021-05-17 13:13:02,-8.8432,121.6623,76.89,86,77,1.66
237,Hami,CN,2021-05-17 13:13:02,42.8,93.45,70.66,26,98,18.07
238,Matadi,CD,2021-05-17 13:13:03,-5.8167,13.45,91.27,54,24,5.06
239,Saly,HU,2021-05-17 13:13:03,47.95,20.6667,57.47,91,100,6.13
240,Omboue,GA,2021-05-17 13:13:04,-1.5746,9.2618,82.96,76,71,5.57
241,Riyadh,SA,2021-05-17 13:13:04,24.6877,46.7219,105.8,7,0,16.11
242,Mnogovershinnyy,RU,2021-05-17 13:13:05,53.9353,139.9242,33.42,89,98,4.07
243,Mar Del Plata,AR,2021-05-17 13:12:04,-38.0023,-57.5575,59.0,93,75,4.61
244,Nemuro,JP,2021-05-17 13:13:05,43.3236,145.575,42.58,95,100,13.15
245,Skibbereen,IE,2021-05-17 13:13:06,51.55,-9.2667,51.8,76,75,10.36
246,Dukat,RU,2021-05-17 13:13:07,62.55,155.55,17.78,96,99,4.36
247,Matay,EG,2021-05-17 13:13:07,28.419,30.7792,91.44,16,0,12.73
248,Maldonado,UY,2021-05-17 13:13:08,-34.6667,-54.9167,55.4,94,75,3.44
249,Egvekinot,RU,2021-05-17 13:13:08,66.3167,-179.1667,25.38,86,100,1.1
250,Chuy,UY,2021-05-17 13:13:09,-33.6971,-53.4616,56.98,59,0,6.2
251,Altamira,BR,2021-05-17 13:13:09,-3.2033,-52.2064,77.0,94,90,3.44
252,Mazagao,BR,2021-05-17 13:13:10,-0.115,-51.2894,82.4,83,75,2.3
253,Odweyne,SO,2021-05-17 13:13:10,9.4092,45.064,93.51,20,90,11.95
254,Tura,IN,2021-05-17 13:13:11,25.5198,90.2201,82.36,68,95,2.26
255,Lahij,YE,2021-05-17 13:13:11,13.1667,44.5833,96.96,33,39,14.74
256,Yuryev-Polskiy,RU,2021-05-17 13:13:12,56.5,39.6833,76.55,64,22,10.27
257,East London,ZA,2021-05-17 13:13:12,-33.0153,27.9116,64.4,55,0,12.66
258,Mahibadhoo,MV,2021-05-17 13:13:13,3.7833,72.9667,84.76,75,12,12.08
259,Togur,RU,2021-05-17 13:13:13,58.3631,82.8265,55.24,73,49,4.18
260,Thompson,CA,2021-05-17 13:13:13,55.7435,-97.8558,26.6,80,90,2.3
261,Celestun,MX,2021-05-17 13:13:14,20.8667,-90.4,78.31,80,100,12.12
262,Port Macquarie,AU,2021-05-17 13:13:15,-31.4333,152.9167,51.01,90,22,1.99
263,Ancud,CL,2021-05-17 13:13:15,-41.8697,-73.8203,48.99,93,75,8.05
264,Neiafu,TO,2021-05-17 13:13:16,-18.65,-173.9833,78.8,89,40,5.75
265,Havoysund,NO,2021-05-17 13:13:17,70.9963,24.6622,46.4,76,40,4.61
266,Contamana,PE,2021-05-17 13:13:17,-7.3333,-75.0167,74.95,94,45,1.21
267,Hirara,JP,2021-05-17 13:13:18,24.8,125.2833,80.35,90,100,12.19
268,Lavrentiya,RU,2021-05-17 13:13:18,65.5833,-171.0,28.31,95,100,0.81
269,Punta Cardon,VE,2021-05-17 13:13:19,11.6581,-70.215,81.23,74,24,25.77
270,Luderitz,NA,2021-05-17 13:13:19,-26.6481,15.1594,72.54,48,7,14.56
271,Nantucket,US,2021-05-17 13:13:20,41.2835,-70.0995,66.2,59,75,4.61
272,Puerto Madryn,AR,2021-05-17 13:13:20,-42.7692,-65.0385,33.8,100,40,2.3
273,Broken Hill,AU,2021-05-17 13:13:21,-31.95,141.4333,46.4,71,0,3.89
274,Rorvik,NO,2021-05-17 13:13:21,64.8621,11.2373,47.7,85,100,11.99
275,Dolzhanskaya,RU,2021-05-17 13:13:22,46.6311,37.8039,62.44,88,100,15.32
276,Santa Clara,CU,2021-05-17 13:13:22,22.4,-79.9667,75.2,94,75,11.5
277,Klaksvik,FO,2021-05-17 13:13:23,62.2266,-6.589,48.2,76,90,16.11
278,Kantemirovka,RU,2021-05-17 13:13:23,49.7089,39.8592,80.82,45,0,14.36
279,Jardim,BR,2021-05-17 13:08:49,-21.4803,-56.1381,80.91,40,48,5.46
280,Zhob,PK,2021-05-17 13:13:24,31.3411,69.4481,76.96,29,87,5.46
281,Olavarria,AR,2021-05-17 13:13:25,-36.8927,-60.3225,45.0,91,64,1.99
282,Cabinda,AO,2021-05-17 13:13:25,-5.55,12.2,86.0,74,75,6.91
283,Nisia Floresta,BR,2021-05-17 13:13:26,-6.0911,-35.2086,82.4,74,40,13.8
284,Tibati,CM,2021-05-17 13:13:26,6.4667,12.6333,78.46,69,90,2.46
285,Soyo,AO,2021-05-17 13:13:27,-6.1349,12.3689,86.0,74,75,6.91
286,Mitsamiouli,KM,2021-05-17 13:13:27,-11.3847,43.2844,81.37,70,50,6.98
287,Buchanan,LR,2021-05-17 13:13:27,5.8808,-10.0467,87.8,70,75,8.05
288,Sisimiut,GL,2021-05-17 13:13:28,66.9395,-53.6735,37.69,56,15,5.7
289,Sao Joao Da Barra,BR,2021-05-17 13:13:28,-21.6403,-41.0511,77.0,65,0,11.5
290,Yerbogachen,RU,2021-05-17 13:13:29,61.2767,108.0108,28.69,46,99,9.82
291,Kodiak,US,2021-05-17 13:08:57,57.79,-152.4072,32.0,93,20,6.91
292,Haicheng,CN,2021-05-17 13:13:30,40.8516,122.7475,63.81,32,86,6.46
293,Nioro,GM,2021-05-17 13:13:30,13.35,-15.75,100.92,14,100,6.98
294,Biak,ID,2021-05-17 13:13:30,-0.9131,122.8766,76.46,84,100,5.39
295,Yulara,AU,2021-05-17 13:13:31,-25.2406,130.9889,59.0,26,5,10.36
296,Kokkola,FI,2021-05-17 13:13:32,63.8385,23.1307,69.8,46,0,11.5
297,Fortuna,US,2021-05-17 13:13:32,40.5982,-124.1573,48.99,100,90,6.91
298,Villanueva,HN,2021-05-17 13:13:33,15.3167,-88.0,81.0,83,75,3.44
299,Campbell River,CA,2021-05-17 13:13:33,50.0163,-125.2446,53.01,82,100,3.02
300,Livingston,GB,2021-05-17 13:11:50,55.9029,-3.5226,54.0,87,40,3.44
301,Bathsheba,BB,2021-05-17 13:13:34,13.2167,-59.5167,86.0,58,40,20.71
302,Cockburn Town,TC,2021-05-17 13:13:35,21.4612,-71.1419,80.6,74,40,11.5
303,Hualmay,PE,2021-05-17 13:13:35,-11.0964,-77.6139,65.3,83,48,6.51
304,Thinadhoo,MV,2021-05-17 13:13:36,0.5333,72.9333,84.79,74,13,9.1
305,Pringsewu,ID,2021-05-17 13:13:36,-5.3582,104.9744,75.27,95,34,3.4
306,Georgetown,MY,2021-05-17 13:08:45,5.4112,100.3354,84.99,74,20,6.91
307,Chkalovsk,RU,2021-05-17 13:13:37,56.7647,43.2433,84.2,34,0,8.95
308,Pangnirtung,CA,2021-05-17 13:13:37,66.1451,-65.7125,23.0,80,40,4.61
309,Trincomalee,LK,2021-05-17 13:13:38,8.5711,81.2335,86.52,71,16,6.64
310,Puerto Colombia,CO,2021-05-17 13:13:39,10.9878,-74.9547,80.6,83,40,6.91
311,Walvis Bay,NA,2021-05-17 13:13:39,-22.9575,14.5053,77.0,41,0,6.91
312,Raudeberg,NO,2021-05-17 13:13:40,61.9875,5.1352,55.0,76,40,20.71
313,Aktau,KZ,2021-05-17 13:13:40,43.65,51.2,93.2,11,0,22.37
314,Yar-Sale,RU,2021-05-17 13:13:41,66.8333,70.8333,32.77,91,71,12.08
315,Tirano,IT,2021-05-17 13:13:41,46.2154,10.1679,55.0,65,75,5.75
316,Broome,US,2021-05-17 13:13:42,42.2506,-75.833,59.0,62,1,3.11
317,Castelbuono,IT,2021-05-17 13:13:42,37.932,14.0886,72.0,59,16,1.99
318,Bandarbeyla,SO,2021-05-17 13:13:43,9.4942,50.8122,89.15,61,38,20.83
319,Olinda,BR,2021-05-17 13:12:04,-8.0089,-34.8553,80.6,65,40,13.8
320,Itarema,BR,2021-05-17 13:13:43,-2.9248,-39.9167,82.47,70,12,12.95
321,Flinders,AU,2021-05-17 13:13:44,-34.5833,150.8552,50.0,72,78,1.01
322,Komsomolskiy,UZ,2021-05-17 13:13:44,40.4272,71.7189,86.0,12,32,20.71
323,San Quintin,MX,2021-05-17 13:13:45,30.4833,-115.95,57.81,81,10,11.21
324,Nanchong,CN,2021-05-17 13:13:45,30.7951,106.0847,71.37,58,100,3.94
325,Sopelana,ES,2021-05-17 13:13:46,43.3789,-2.9831,64.99,59,20,13.8
326,Merritt,CA,2021-05-17 13:13:46,50.1123,-120.7942,62.6,55,1,17.27
327,Ternate,ID,2021-05-17 13:13:47,0.8,127.4,81.93,80,100,6.24
328,Codrington,AU,2021-05-17 13:13:47,-38.2667,141.9667,48.79,92,39,5.57
329,Kaminoyama,JP,2021-05-17 13:13:48,38.1539,140.2736,68.0,94,75,4.61
330,Karpogory,RU,2021-05-17 13:13:48,64.0019,44.4451,65.16,48,100,2.08
331,Kautokeino,NO,2021-05-17 13:13:49,69.0125,23.0412,37.96,100,100,5.75
332,Waipawa,NZ,2021-05-17 13:13:49,-41.4122,175.5153,59.0,67,0,20.71
333,Longyearbyen,SJ,2021-05-17 13:13:50,78.2186,15.6401,28.4,64,20,5.75
334,Ballina,AU,2021-05-17 13:13:50,-28.8667,153.5667,55.4,76,99,8.05
335,Alexandria,EG,2021-05-17 13:13:51,31.2156,29.9553,77.0,53,20,13.8
336,Goderich,CA,2021-05-17 13:13:51,43.7501,-81.7165,57.2,58,89,5.75
337,Coihaique,CL,2021-05-17 13:13:52,-45.5752,-72.0662,33.8,93,75,3.44
338,Naze,JP,2021-05-17 13:13:52,28.3667,129.4833,74.01,90,100,8.25
339,Kuminskiy,RU,2021-05-17 13:13:53,58.6667,66.5667,66.22,63,21,7.2
340,Comodoro Rivadavia,AR,2021-05-17 13:13:53,-45.8667,-67.5,42.8,81,75,8.77
341,Opuwo,NA,2021-05-17 13:13:54,-18.0607,13.84,85.17,17,5,7.78
342,Sao Jose Da Coroa Grande,BR,2021-05-17 13:13:54,-8.8978,-35.1478,81.72,63,41,9.8
343,La Ronge,CA,2021-05-17 13:13:55,55.1001,-105.2842,42.8,65,100,5.75
344,Leningradskiy,RU,2021-05-17 13:13:56,69.3833,178.4167,28.53,93,100,9.55
345,Murgab,TM,2021-05-17 13:13:56,37.4966,61.9714,93.2,18,0,9.22
346,Yaring,TH,2021-05-17 13:13:56,6.8662,101.3689,82.58,77,100,3.56
347,Road Town,VG,2021-05-17 13:11:08,18.4167,-64.6167,84.99,74,40,9.22
348,Olafsvik,IS,2021-05-17 13:13:57,64.8945,-23.7142,39.34,65,100,13.13
349,Itoman,JP,2021-05-17 13:13:14,26.1247,127.6694,80.6,89,75,10.36
350,Ostrovnoy,RU,2021-05-17 13:13:58,68.0531,39.5131,45.82,75,87,5.26
351,Lufilufi,WS,2021-05-17 13:13:59,-13.8745,-171.5986,73.4,100,20,20.49
352,Tomatlan,MX,2021-05-17 13:13:59,19.9333,-105.25,73.24,79,0,2.59
353,Fairbanks,US,2021-05-17 13:10:46,64.8378,-147.7164,44.6,93,75,4.03
354,Tadine,NC,2021-05-17 13:14:00,-21.55,167.8833,72.54,76,97,10.83
355,Dudinka,RU,2021-05-17 13:14:00,69.4058,86.1778,21.72,91,96,4.34
356,Lisieux,FR,2021-05-17 13:14:01,49.1667,0.1667,55.4,82,90,14.97
357,Martapura,ID,2021-05-17 13:14:01,-3.4167,114.85,80.6,83,90,4.61
358,Emerald,AU,2021-05-17 13:11:06,-23.5333,148.1667,59.0,26,0,11.5
359,San Pedro,PH,2021-05-17 13:14:02,14.35,121.0167,86.0,74,20,9.22
360,Gaoual,GN,2021-05-17 13:14:02,11.75,-13.2,103.8,20,100,3.15
361,Razole,IN,2021-05-17 13:14:03,16.4833,81.8333,91.4,66,40,6.91
362,Chicama,PE,2021-05-17 13:14:03,-7.8447,-79.1469,64.4,88,90,6.91
363,Hasaki,JP,2021-05-17 13:14:04,35.7333,140.8333,75.2,83,75,16.11
364,Rudbar,AF,2021-05-17 13:14:04,30.15,62.6,96.49,7,0,13.78
365,Axim,GH,2021-05-17 13:14:05,4.8699,-2.2405,85.59,67,70,10.0
366,Semey,KZ,2021-05-17 13:09:32,50.4111,80.2275,80.6,26,0,11.18
367,Aleksandrov Gay,RU,2021-05-17 13:14:05,50.147,48.5704,87.4,21,0,11.41
368,Nigrita,GR,2021-05-17 13:14:06,40.9053,23.4994,80.01,45,36,5.01
369,Syracuse,IT,2021-05-17 13:14:07,37.0881,15.2792,82.99,32,0,11.5
370,Rocha,UY,2021-05-17 13:14:07,-34.4833,-54.3333,57.72,73,0,7.14
371,Kloulklubed,PW,2021-05-17 13:14:08,7.0419,134.2556,78.8,83,75,3.44
372,Coahuayana,MX,2021-05-17 13:14:08,18.7333,-103.6833,66.2,82,90,2.01
373,Sterling,US,2021-05-17 13:14:09,39.0062,-77.4286,63.0,72,40,1.66
374,Ola,RU,2021-05-17 13:14:09,59.5833,151.2833,35.13,77,100,19.33
375,Rock Sound,BS,2021-05-17 13:14:10,24.9,-76.2,76.98,60,78,15.99
376,Rabo De Peixe,PT,2021-05-17 13:14:10,37.8,-25.5833,66.2,94,75,19.57
377,Wakkanai,JP,2021-05-17 13:14:11,45.4094,141.6739,49.12,82,7,5.26
378,Cururupu,BR,2021-05-17 13:14:01,-1.8283,-44.8683,81.48,84,89,4.74
379,Sorland,NO,2021-05-17 13:14:11,67.667,12.6934,46.29,84,52,6.2
380,Salalah,OM,2021-05-17 13:14:12,17.0151,54.0924,89.6,74,20,12.66
381,Tobane,BW,2021-05-17 13:14:12,-21.95,27.9,87.8,27,0,3.94
382,Mount Isa,AU,2021-05-17 13:14:13,-20.7333,139.5,66.2,18,0,10.36
383,Kovvur,IN,2021-05-17 13:14:13,17.0167,81.7333,91.4,66,40,6.91
384,Dekar,BW,2021-05-17 13:11:18,-21.5333,21.9333,81.03,18,87,4.36
385,Iskateley,RU,2021-05-17 13:14:14,67.6803,53.1512,47.86,26,62,10.31
386,Makakilo City,US,2021-05-17 13:12:49,21.3469,-158.0858,73.4,78,40,5.75
387,Kirkuk,IQ,2021-05-17 13:13:56,35.4681,44.3922,99.43,6,100,21.03
388,Salinas,US,2021-05-17 13:10:14,36.6777,-121.6555,53.6,82,90,1.97
389,Saint-Joseph,RE,2021-05-17 13:14:15,-21.3667,55.6167,80.6,65,0,4.61
390,Kaspiyskiy,RU,2021-05-17 13:14:15,45.3929,47.3707,76.53,40,6,21.43
391,Vostok,RU,2021-05-17 13:14:16,46.4856,135.8833,50.41,57,0,6.13
392,Puerto Leguizamo,CO,2021-05-17 13:14:16,-0.1934,-74.7819,73.8,96,99,2.33
393,Grants Pass,US,2021-05-17 13:11:02,42.439,-123.3284,50.0,71,1,1.1
394,Port Antonio,JM,2021-05-17 13:14:17,18.18,-76.4612,84.99,74,20,5.75
395,The Pas,CA,2021-05-17 13:14:18,53.8251,-101.2541,37.4,81,75,12.66
396,Atar,MR,2021-05-17 13:14:18,20.5169,-13.0499,93.2,16,100,11.5
397,Banes,CU,2021-05-17 13:14:19,20.9625,-75.7186,82.4,69,40,11.5
398,Baleshwar,IN,2021-05-17 13:14:19,21.4942,86.9317,88.48,70,10,15.84
399,Luena,AO,2021-05-17 13:14:20,-11.7833,19.9167,82.4,36,0,4.61
400,Phatthalung,TH,2021-05-17 13:14:20,7.5,100.0833,82.4,89,75,3.44
401,Mogadishu,SO,2021-05-17 13:14:09,2.0371,45.3438,84.2,65,40,17.27
402,Xuddur,SO,2021-05-17 13:14:21,4.1213,43.8894,92.91,35,33,15.43
403,Baruun-Urt,MN,2021-05-17 13:14:22,46.6806,113.2792,64.0,27,5,7.58
404,Sao Domingos,BR,2021-05-17 13:14:22,-13.3983,-46.3183,77.49,45,100,7.87
405,Cosamaloapan,MX,2021-05-17 13:14:23,18.3667,-95.8,80.01,73,7,2.55
406,Soavinandriana,MG,2021-05-17 13:14:23,-19.1667,46.7333,69.28,53,65,5.86
407,Sorong,ID,2021-05-17 13:14:24,-0.8833,131.25,80.83,82,100,2.3
408,Kroya,ID,2021-05-17 13:14:24,-7.6331,109.2461,80.31,78,100,6.51
409,Coos Bay,US,2021-05-17 13:13:26,43.3665,-124.2179,50.0,93,90,1.83
410,The Valley,AI,2021-05-17 13:13:57,18.217,-63.0578,84.2,70,20,9.22
411,Tyazhinskiy,RU,2021-05-17 13:14:25,56.116,88.524,53.24,75,88,4.05
412,Piedecuesta,CO,2021-05-17 13:14:26,6.9879,-73.0495,68.0,100,75,4.61
413,Show Low,US,2021-05-17 13:11:58,34.2542,-110.0298,39.2,38,1,3.74
414,Cabedelo,BR,2021-05-17 13:14:26,-6.9811,-34.8339,82.4,74,75,10.36
415,Dasoguz,TM,2021-05-17 13:14:27,41.8363,59.9666,91.4,9,0,16.11
416,Kapit,MY,2021-05-17 13:14:27,2.0167,112.9333,75.69,98,100,0.58
417,La Rioja,ES,2021-05-17 13:14:28,42.25,-2.5,66.99,39,40,4.61
418,Bryan,US,2021-05-17 13:14:28,30.6744,-96.37,73.99,100,90,5.75
419,Tanda,IN,2021-05-17 13:14:29,26.55,82.65,103.1,15,80,6.98
420,Rio Grande,BR,2021-05-17 13:14:29,-32.035,-52.0986,55.4,100,90,10.36
421,Villarrica,PY,2021-05-17 13:14:30,-25.75,-56.4333,71.37,60,0,4.41
422,Snasa,NO,2021-05-17 13:14:30,64.2457,12.3778,54.82,69,100,8.7
423,Kerikeri,NZ,2021-05-17 13:14:31,-35.2268,173.9474,52.0,95,33,3.0
424,Guerrero Negro,MX,2021-05-17 13:14:31,27.9769,-114.0611,59.65,75,100,17.65
425,Arkhangelskoye,RU,2021-05-17 13:14:32,55.8549,35.3287,77.05,59,10,13.56
426,Leopold,AU,2021-05-17 13:14:33,-38.1833,144.4667,52.0,82,90,4.61
427,Luganville,VU,2021-05-17 13:14:33,-15.5333,167.1667,79.84,83,100,8.68
428,Dzhida,RU,2021-05-17 13:14:34,50.6772,106.1806,52.61,59,93,7.43
429,Jumla,NP,2021-05-17 13:14:34,29.2747,82.1838,61.25,58,96,4.7
430,Gurupa,BR,2021-05-17 13:14:35,-1.405,-51.64,79.05,92,31,2.21
431,Khilok,RU,2021-05-17 13:14:35,51.3674,110.4676,45.64,67,97,6.91
432,Hilversum,NL,2021-05-17 13:14:36,52.2233,5.1764,60.01,88,96,3.0
433,Leku,ET,2021-05-17 13:14:36,6.8667,38.45,71.35,73,100,5.35
434,Port Shepstone,ZA,2021-05-17 13:14:37,-30.7414,30.455,67.71,60,18,11.23
435,Bergama,TR,2021-05-17 13:14:37,39.1207,27.1805,81.0,50,20,13.8
436,Nishihara,JP,2021-05-17 13:14:38,26.1842,127.7558,80.6,89,75,10.36
437,Hofn,IS,2021-05-17 13:14:39,64.2539,-15.2082,42.8,45,75,18.41
438,Henties Bay,NA,2021-05-17 13:14:39,-22.116,14.2845,67.8,67,93,10.89
439,Burgeo,CA,2021-05-17 13:14:40,47.6167,-57.6152,44.91,72,34,6.96
440,Inuvik,CA,2021-05-17 13:14:40,68.3499,-133.7218,37.4,60,76,8.05
441,Mouzouras,GR,2021-05-17 13:14:41,35.5333,24.15,77.0,50,0,13.8
442,Hays,US,2021-05-17 13:14:41,30.0502,-98.0336,73.99,92,100,5.99
443,Laguna,US,2021-05-17 13:14:42,38.421,-121.4238,52.0,87,1,5.75
444,Ocos,GT,2021-05-17 13:14:42,14.5094,-92.1933,77.0,94,40,3.44
445,Ambon,ID,2021-05-17 13:14:43,-3.6954,128.1814,81.55,82,93,13.78
446,Awbari,LY,2021-05-17 13:14:43,26.5921,12.7805,98.62,6,78,8.79
447,Pacifica,US,2021-05-17 13:14:44,37.6138,-122.4869,52.0,93,90,5.75
448,Tobetsu,JP,2021-05-17 13:14:44,43.2169,141.5169,57.99,8,94,1.99
449,Neepawa,CA,2021-05-17 13:14:45,50.2289,-99.4664,57.0,71,40,11.5
450,Calamar,CO,2021-05-17 13:14:45,10.2511,-74.9146,84.2,84,75,5.75
451,Kaeo,NZ,2021-05-17 13:14:46,-35.1,173.7833,52.0,95,74,3.0
452,Litovko,RU,2021-05-17 13:14:46,49.2361,135.1742,58.05,55,42,7.63
453,Kazachinskoye,RU,2021-05-17 13:14:47,57.6953,93.2761,48.61,46,25,3.67
454,Waingapu,ID,2021-05-17 13:14:48,-9.6567,120.2641,77.2,82,12,8.81
455,Norman Wells,CA,2021-05-17 13:14:48,65.282,-126.8329,35.6,75,75,6.91
456,Kismayo,SO,2021-05-17 13:14:48,-0.3582,42.5454,83.25,72,81,15.37
457,Weligama,LK,2021-05-17 13:14:49,5.9667,80.4167,82.63,79,14,9.8
458,Ambovombe,MG,2021-05-17 13:14:49,-25.1667,46.0833,77.85,54,19,8.39
459,Hue,VN,2021-05-17 13:14:50,16.4667,107.6,87.8,70,20,5.75
460,Grindavik,IS,2021-05-17 13:14:50,63.8424,-22.4338,42.8,52,75,4.61
461,Coari,BR,2021-05-17 13:14:51,-4.085,-63.1414,79.7,78,100,2.15
462,Miles City,US,2021-05-17 13:13:09,46.4083,-105.8406,57.2,67,1,11.5
463,Puerto Montt,CL,2021-05-17 13:14:51,-41.4698,-72.9447,42.8,100,75,4.61
464,Kuching,MY,2021-05-17 13:14:52,1.55,110.3333,80.6,89,20,3.44
465,Rayong,TH,2021-05-17 13:14:52,12.8333,101.4333,84.99,84,20,4.61
466,Morgantown,US,2021-05-17 13:14:53,39.6295,-79.9559,55.4,76,1,3.62
467,Port Moresby,PG,2021-05-17 13:14:54,-9.4431,147.1797,78.8,94,75,9.22
468,Mongoumba,CF,2021-05-17 13:11:19,3.6415,18.5936,93.81,41,96,2.44
469,Korla,CN,2021-05-17 13:14:54,41.7597,86.1469,66.09,38,100,11.92
470,Cortez,US,2021-05-17 13:12:13,37.3489,-108.5859,51.01,39,1,2.86
471,Hamina,FI,2021-05-17 13:14:55,60.5697,27.1979,73.4,43,20,17.27
472,Dickinson,US,2021-05-17 13:14:55,29.4608,-95.0513,77.0,94,75,6.91
473,Bilibino,RU,2021-05-17 13:14:56,68.0546,166.4372,23.45,99,66,3.91
474,Northam,GB,2021-05-17 13:14:56,51.0333,-4.2167,55.0,92,19,1.99
475,Pindiga,NG,2021-05-17 13:14:57,9.9833,10.9333,91.4,52,0,11.5
476,Cadiz,ES,2021-05-17 13:14:57,36.5,-5.75,89.6,23,0,12.66
477,Vanavara,RU,2021-05-17 13:14:58,60.34,102.2797,33.66,42,76,5.37
478,Sistranda,NO,2021-05-17 13:14:58,63.7256,8.834,53.6,71,75,17.27
479,Ati,TD,2021-05-17 13:14:59,13.2154,18.3353,107.87,8,46,14.88
480,Maningrida,AU,2021-05-17 13:14:59,-12.0667,134.2667,74.68,68,17,13.29
481,Mujiayingzi,CN,2021-05-17 13:15:00,42.1167,118.7833,67.03,24,67,7.81
482,Bojnurd,IR,2021-05-17 13:15:00,37.4747,57.329,86.0,14,20,9.22
483,Sattahip,TH,2021-05-17 13:15:01,12.6664,100.9007,84.2,84,20,4.61
484,Kyabe,TD,2021-05-17 13:15:01,9.4515,18.9449,97.68,30,100,6.46
485,Abyek,IR,2021-05-17 13:15:02,36.0667,50.55,86.0,15,40,11.5
486,Sable-Sur-Sarthe,FR,2021-05-17 13:15:03,47.8376,-0.3329,62.6,67,20,19.57
487,Svetlogorsk,BY,2021-05-17 13:15:03,52.6333,29.7333,60.57,93,100,8.61
488,Akureyri,IS,2021-05-17 13:15:04,65.6835,-18.0878,37.4,70,90,12.66
489,Kargasok,RU,2021-05-17 13:15:04,59.0556,80.8572,57.31,71,52,8.32
490,Villacarrillo,ES,2021-05-17 13:15:04,38.1156,-3.0848,79.7,30,58,7.65
491,Shenjiamen,CN,2021-05-17 13:15:05,29.9576,122.298,62.29,82,100,5.39
492,Marawi,PH,2021-05-17 13:15:05,7.9986,124.2928,84.99,78,60,1.77
493,Lata,PT,2021-05-17 13:15:06,40.1629,-8.3327,73.99,49,82,7.65
494,Truth Or Consequences,US,2021-05-17 13:14:24,33.1284,-107.2528,59.0,23,1,9.22
495,Sao Felix Do Xingu,BR,2021-05-17 13:15:07,-6.6447,-51.995,83.71,61,48,3.42
496,Puerto Del Rosario,ES,2021-05-17 13:15:07,28.5004,-13.8627,75.2,69,20,21.85
497,Jieshi,CN,2021-05-17 13:15:08,22.8134,115.8257,82.44,84,83,9.93
498,Maniitsoq,GL,2021-05-17 13:15:08,65.4167,-52.9,36.23,70,10,2.46
499,Fort Frances,CA,2021-05-17 13:10:14,48.5999,-93.4003,64.4,52,1,4.61
500,Vernon,CA,2021-05-17 13:14:31,50.2581,-119.2691,59.0,58,100,1.97
501,Leh,IN,2021-05-17 13:15:09,34.1667,77.5833,48.54,37,60,8.39
502,Challans,FR,2021-05-17 13:15:10,46.8436,-1.8749,63.0,72,75,21.85
503,Sitarganj,IN,2021-05-17 13:15:10,28.9333,79.7,96.24,20,98,13.67
504,Watsa,CD,2021-05-17 13:15:11,3.0372,29.5355,87.28,43,100,5.5
505,Sola,VU,2021-05-17 13:15:11,-13.8833,167.55,81.9,78,80,17.2
506,Idil,TR,2021-05-17 13:15:12,37.3411,41.8895,89.6,15,40,13.8
507,Kualakapuas,ID,2021-05-17 13:15:12,-3.0091,114.3876,80.6,83,90,4.61
508,Port-Gentil,GA,2021-05-17 13:15:13,-0.7193,8.7815,84.2,84,75,2.3
509,Ayan,RU,2021-05-17 13:15:13,56.45,138.1667,31.84,97,100,5.55
510,Merrill,US,2021-05-17 13:15:14,45.1805,-89.6835,59.0,82,1,3.11
511,Verkhniy Baskunchak,RU,2021-05-17 13:15:14,48.2256,46.7217,89.47,13,6,20.13
512,Khani,GE,2021-05-17 13:15:14,41.9563,42.9566,60.8,88,90,8.05
513,Plymouth,US,2021-05-17 13:15:15,41.8334,-70.8328,66.2,48,1,3.44
514,Brattleboro,US,2021-05-17 13:15:16,42.8509,-72.5579,66.0,61,13,1.01
515,Nome,US,2021-05-17 13:15:16,64.5011,-165.4064,28.4,80,1,4.09
516,Colares,PT,2021-05-17 13:15:17,38.7992,-9.4469,73.0,56,0,9.22
517,Ishigaki,JP,2021-05-17 13:15:17,24.3448,124.1572,81.25,87,100,14.47
518,Vanimo,PG,2021-05-17 13:15:17,-2.6741,141.3028,80.01,88,99,5.01
519,Zhezkazgan,KZ,2021-05-17 13:15:18,47.8043,67.7144,85.86,20,15,14.29
520,Plettenberg Bay,ZA,2021-05-17 13:15:18,-34.0527,23.3716,61.66,58,1,8.1
521,Kamensk-Uralskiy,RU,2021-05-17 13:15:19,56.4185,61.9329,86.13,25,56,16.4
522,Chumikan,RU,2021-05-17 13:15:20,54.7183,135.315,31.98,97,100,3.44
523,Flin Flon,CA,2021-05-17 13:15:20,54.7682,-101.865,35.6,75,75,6.91
524,Teya,RU,2021-05-17 13:15:21,60.3778,92.6267,43.29,33,2,5.21
525,Zhenlai,CN,2021-05-17 13:15:21,45.8495,123.2973,73.38,21,25,15.1
526,Port Blair,IN,2021-05-17 13:15:22,11.6667,92.75,85.68,73,100,5.61
527,Shwebo,MM,2021-05-17 13:15:22,22.5667,95.7,98.98,27,10,5.3
528,Moctezuma,MX,2021-05-17 13:15:23,29.8,-109.6667,63.03,30,0,2.19
529,Moramanga,MG,2021-05-17 13:15:23,-18.9333,48.2,73.35,58,27,4.94
530,Buxton,GB,2021-05-17 13:15:24,53.2574,-1.9098,55.0,86,100,1.01
531,Onverwacht,SR,2021-05-17 13:15:24,5.5833,-55.1833,84.2,78,75,6.91
532,Abu Samrah,SY,2021-05-17 13:15:25,35.3029,37.1841,83.28,18,10,25.43
533,Khandwa,IN,2021-05-17 13:15:25,21.8333,76.3333,96.87,32,100,12.03
534,Adrar,MR,2021-05-17 13:15:26,20.5022,-10.0711,104.88,8,11,12.17
535,Gayeri,BF,2021-05-17 13:15:26,12.6497,0.4931,106.81,15,100,3.76
536,Promyshlennaya,RU,2021-05-17 13:15:26,54.9159,85.6385,62.6,55,0,8.95
537,Tomohon,ID,2021-05-17 13:15:27,1.3346,124.8392,78.8,94,40,1.14
538,Porto Murtinho,BR,2021-05-17 13:15:27,-21.6989,-57.8825,79.36,45,88,6.33
539,San Luis,AR,2021-05-17 13:15:28,-33.295,-66.3356,60.53,56,96,5.59
540,Baherden,TM,2021-05-17 13:15:28,38.4362,57.4316,93.09,8,0,12.93
541,Salamiyah,SY,2021-05-17 13:15:28,35.0113,37.0532,81.41,22,11,27.13
542,Sivaki,RU,2021-05-17 13:15:29,52.6333,126.75,49.53,46,100,5.75
543,Lashio,MM,2021-05-17 13:15:29,22.9333,97.75,78.82,50,18,1.52
544,Aste,IT,2021-05-17 13:15:30,45.7906,11.0961,66.99,83,11,10.0
545,Oro Valley,US,2021-05-17 13:15:30,32.3909,-110.9665,63.0,28,0,1.99
546,Palamedu,IN,2021-05-17 13:15:31,10.1167,78.1167,84.2,74,40,12.66
547,Tanabe,JP,2021-05-17 13:15:31,33.7333,135.3667,73.0,94,99,1.01
548,Gazalkent,UZ,2021-05-17 13:15:31,41.5581,69.7708,89.6,12,0,6.91
549,Timiryazevskiy,RU,2021-05-17 13:15:32,56.49,84.8769,57.99,76,39,0.81
550,Honiara,SB,2021-05-17 13:15:32,-9.4333,159.95,78.6,86,42,7.2
551,Brae,GB,2021-05-17 13:15:33,60.3964,-1.353,48.2,87,75,5.75
552,Novoagansk,RU,2021-05-17 13:15:33,61.9449,76.6625,43.74,95,100,9.24
553,Isangel,VU,2021-05-17 13:15:33,-19.55,169.2667,75.2,94,40,9.64
554,Mweka,CD,2021-05-17 13:15:34,-4.85,21.5667,90.0,40,95,3.76
555,Nizwa,OM,2021-05-17 13:15:34,22.9333,57.5333,102.45,10,30,8.95
556,Turan,VN,2021-05-17 13:11:28,16.0678,108.2208,84.2,84,20,5.75
557,Choix,MX,2021-05-17 13:15:35,26.7092,-108.3219,68.58,29,0,4.25
558,Wajir,KE,2021-05-17 13:15:36,1.7471,40.0573,93.2,40,75,3.44
559,Sechura,PE,2021-05-17 13:15:36,-5.5569,-80.8222,68.27,77,8,11.45
560,Eureka,US,2021-05-17 13:15:36,40.8021,-124.1637,48.99,96,100,1.16
561,Asmar,AF,2021-05-17 13:15:37,35.0333,71.3581,80.56,38,41,4.97
562,Shingu,JP,2021-05-17 13:15:37,33.7333,135.9833,73.0,94,100,1.01
563,Katobu,ID,2021-05-17 13:15:38,-4.9408,122.5276,75.9,88,100,4.65
564,Arvika,SE,2021-05-17 13:15:38,59.6553,12.5852,53.6,87,75,12.66
565,Redlands,US,2021-05-17 13:11:09,34.0556,-117.1825,57.99,77,90,3.44
566,Ranfurly,NZ,2021-05-17 13:15:39,-45.1333,170.1,52.0,60,91,4.5
567,Gigmoto,PH,2021-05-17 13:15:39,13.7796,124.39,81.45,88,88,9.37
568,Tingi,TZ,2021-05-17 13:15:39,-11.3,35.0333,70.03,71,88,2.39
569,Wanning,CN,2021-05-17 13:15:40,18.8003,110.3967,82.67,86,27,9.42
570,Ozernovskiy,RU,2021-05-17 13:15:41,51.5,156.5167,38.97,96,100,3.78
571,Zeitz,DE,2021-05-17 13:15:41,51.05,12.15,60.01,68,77,12.84
