City_ID,City,Country,Date,Lat,Lng,Max Temp,Humidity,Cloudiness,Wind Speed
0,Atuona,PF,2021-07-16 19:42:01,-9.8,-139.0333,77.61,75,32,23.73
1,Cape Town,ZA,2021-07-16 19:42:02,-33.9258,18.4232,55.11,94,0,3.44
2,Esso,RU,2021-07-16 19:42:02,55.9333,158.7,59.68,84,100,3.53
3,Langsa,ID,2021-07-16 19:42:02,4.4683,97.9683,75.36,94,99,2.46
4,Dikson,RU,2021-07-16 19:42:03,73.5069,80.5464,34.99,89,100,9.64
5,Padang,ID,2021-07-16 19:42:03,-0.9492,100.3543,75.74,77,67,3.91
6,Vaini,TO,2021-07-16 19:42:03,-21.2,-175.2,73.56,94,75,6.91
7,Ribeira Grande,PT,2021-07-16 19:42:04,38.5167,-28.7,70.2,60,20,13.8
8,Upernavik,GL,2021-07-16 19:42:04,72.7868,-56.1549,46.51,60,100,33.42
9,Frunzivka,UA,2021-07-16 19:42:05,47.3333,29.75,76.39,51,100,5.12
10,Punta Arenas,CL,2021-07-16 19:42:05,-53.15,-70.9167,37.51,87,40,6.91
11,Kaitangata,NZ,2021-07-16 19:42:05,-46.2817,169.8464,46.42,96,100,2.08
12,Ilheus,BR,2021-07-16 19:42:06,-14.7889,-39.0494,78.62,73,20,9.22
13,Salalah,OM,2021-07-16 19:42:06,17.0151,54.0924,78.89,94,75,8.05
14,Karratha,AU,2021-07-16 19:42:06,-20.7377,116.8463,63.28,31,1,12.59
15,Rikitea,PF,2021-07-16 19:42:07,-23.1203,-134.9692,72.7,66,10,8.05
16,Myitkyina,MM,2021-07-16 19:42:07,25.3833,97.4,75.25,98,100,1.88
17,Carnarvon,AU,2021-07-16 19:42:08,-24.8667,113.6333,57.27,57,92,6.91
18,Hilo,US,2021-07-16 19:40:13,19.7297,-155.09,93.27,88,90,0.0
19,Jamestown,US,2021-07-16 19:38:23,42.097,-79.2353,74.3,97,90,1.99
20,Birin,NP,2021-07-16 19:42:09,26.8865,88.0718,65.16,92,100,1.07
21,Butaritari,KI,2021-07-16 19:42:09,3.0707,172.7902,83.89,77,52,16.89
22,Ushuaia,AR,2021-07-16 19:40:06,-54.8,-68.3,33.46,80,75,3.44
23,Oskarshamn,SE,2021-07-16 19:42:09,57.2645,16.4484,69.57,86,39,7.54
24,Orzu,TJ,2021-07-16 19:42:10,37.5593,68.8184,84.6,23,42,2.35
25,Sitka,US,2021-07-16 19:38:19,57.0531,-135.33,58.89,82,75,0.0
26,Erenhot,CN,2021-07-16 19:42:10,43.6475,111.9767,77.9,55,89,2.39
27,Mering,DE,2021-07-16 19:42:11,48.2656,10.9846,68.81,77,0,3.44
28,Porto Walter,BR,2021-07-16 19:42:11,-8.2686,-72.7439,86.23,56,100,1.86
29,Takoradi,GH,2021-07-16 19:42:11,4.8845,-1.7554,75.92,89,99,12.28
30,Nikolskoye,RU,2021-07-16 19:42:12,59.7035,30.7861,76.89,67,21,3.0
31,Kanniyakumari,IN,2021-07-16 19:42:12,8.0833,77.5667,78.91,79,37,18.88
32,Pingliang,CN,2021-07-16 19:42:12,35.5392,106.6861,67.39,89,9,1.92
33,Tasiilaq,GL,2021-07-16 19:42:13,65.6145,-37.6368,51.96,67,0,7.38
34,Vasterhaninge,SE,2021-07-16 19:42:13,59.1167,18.1,69.33,66,0,8.81
35,Hobart,AU,2021-07-16 19:41:22,-42.8794,147.3294,43.11,96,20,8.05
36,Oga,IT,2021-07-16 19:42:14,46.4631,10.347,54.81,91,94,6.26
37,Hermanus,ZA,2021-07-16 19:42:14,-34.4187,19.2345,54.9,77,0,5.95
38,East London,ZA,2021-07-16 19:42:14,-33.0153,27.9116,58.33,39,0,6.64
39,Luderitz,NA,2021-07-16 19:42:15,-26.6481,15.1594,61.0,36,0,9.51
40,Lavrentiya,RU,2021-07-16 19:42:15,65.5833,-171.0,47.88,86,98,12.95
41,Kizner,RU,2021-07-16 19:42:16,56.2749,51.508,60.94,95,5,1.21
42,Iralaya,HN,2021-07-16 19:42:16,15.0,-83.2333,89.69,69,2,7.02
43,Rafaela,AR,2021-07-16 19:42:16,-31.2503,-61.4867,61.05,55,59,4.0
44,Praia Da Vitoria,PT,2021-07-16 19:42:17,38.7333,-27.0667,72.75,78,75,15.21
45,Paraiso,CR,2021-07-16 19:42:17,9.8383,-83.8656,80.15,50,38,5.64
46,Dauphin,CA,2021-07-16 19:42:17,51.1494,-100.0502,87.94,45,1,10.36
47,Port Elizabeth,ZA,2021-07-16 19:42:18,-33.918,25.5701,43.09,75,40,5.75
48,Puerto Ayora,EC,2021-07-16 19:42:18,-0.7393,-90.3518,78.76,88,86,5.99
49,Esperance,AU,2021-07-16 19:42:19,-33.8667,121.9,51.64,81,100,5.17
50,Bubaque,GW,2021-07-16 19:42:19,11.2833,-15.8333,80.92,81,96,9.91
51,Tonantins,BR,2021-07-16 19:42:19,-2.8731,-67.8022,85.03,64,26,4.52
52,Ambon,ID,2021-07-16 19:42:20,-3.6954,128.1814,78.35,84,100,6.62
53,Tiksi,RU,2021-07-16 19:42:20,71.6872,128.8694,38.88,88,100,11.72
54,Morondava,MG,2021-07-16 19:42:21,-20.2833,44.2833,71.67,79,0,11.79
55,New Norfolk,AU,2021-07-16 19:42:21,-42.7826,147.0587,42.75,92,18,2.53
56,Mataura,NZ,2021-07-16 19:42:21,-46.1927,168.8643,43.48,99,100,3.15
57,Ginda,IN,2021-07-16 19:42:22,30.6945,78.4932,67.93,97,99,1.92
58,Vanavara,RU,2021-07-16 19:42:22,60.34,102.2797,58.71,94,81,2.68
59,Port Alfred,ZA,2021-07-16 19:42:22,-33.5906,26.891,60.21,30,0,9.86
60,Sao Felix Do Xingu,BR,2021-07-16 19:42:23,-6.6447,-51.995,95.76,26,5,2.13
61,Whitehorse,CA,2021-07-16 19:37:55,60.7161,-135.0538,61.57,33,40,8.99
62,Kahului,US,2021-07-16 19:42:23,20.8947,-156.47,82.42,71,40,18.41
63,Mar Del Plata,AR,2021-07-16 19:39:10,-38.0023,-57.5575,59.02,58,0,13.0
64,Nanortalik,GL,2021-07-16 19:42:24,60.1432,-45.2371,49.71,70,100,1.97
65,Kapaa,US,2021-07-16 19:42:24,22.0752,-159.319,81.12,77,90,3.0
66,Busselton,AU,2021-07-16 19:42:25,-33.65,115.3333,46.04,78,100,0.83
67,Christchurch,NZ,2021-07-16 19:38:21,-43.5333,172.6333,53.01,90,100,3.0
68,Albany,US,2021-07-16 19:42:25,42.6001,-73.9662,87.67,65,68,10.96
69,Sept-Iles,CA,2021-07-16 19:42:25,50.2001,-66.3821,71.26,65,75,8.01
70,Soyo,AO,2021-07-16 19:42:26,-6.1349,12.3689,72.73,86,15,9.73
71,Barrow,US,2021-07-16 19:39:11,71.2906,-156.7887,48.22,81,90,14.97
72,Souillac,MU,2021-07-16 19:42:26,-20.5167,57.5167,70.18,83,40,11.5
73,Bathsheba,BB,2021-07-16 19:42:27,13.2167,-59.5167,79.41,89,75,11.5
74,Havre-Saint-Pierre,CA,2021-07-16 19:42:27,50.2334,-63.5986,64.76,94,90,12.66
75,Deqing,CN,2021-07-16 19:42:27,30.5448,119.9599,85.96,97,100,2.93
76,Hargeysa,SO,2021-07-16 19:42:28,9.56,44.065,72.97,52,100,22.1
77,Roald,NO,2021-07-16 19:42:28,62.5833,6.1333,67.12,77,40,23.02
78,Sabla,NG,2021-07-16 19:42:29,12.7525,4.7077,88.83,52,55,6.22
79,Iquitos,PE,2021-07-16 19:42:29,-3.7481,-73.2472,87.84,66,75,4.61
80,Maniitsoq,GL,2021-07-16 19:42:30,65.4167,-52.9,48.72,72,29,5.01
81,Kutum,SD,2021-07-16 19:42:30,14.2,24.6667,74.12,54,98,8.93
82,Kasongo-Lunda,CD,2021-07-16 19:42:30,-6.4667,16.8167,75.79,29,43,1.21
83,Kushiro,JP,2021-07-16 19:42:31,42.975,144.3747,63.5,99,100,1.1
84,Dossor,KZ,2021-07-16 19:42:31,47.5272,52.9811,80.11,37,7,8.81
85,Tuktoyaktuk,CA,2021-07-16 19:42:32,69.4541,-133.0374,57.2,58,40,6.91
86,Cherskiy,RU,2021-07-16 19:42:32,68.75,161.3,55.8,44,32,11.74
87,Praia,CV,2021-07-16 19:42:32,14.9215,-23.5087,79.34,65,20,9.22
88,Virginia Beach,US,2021-07-16 19:42:33,36.8529,-75.978,97.02,61,75,12.66
89,Bonito,BR,2021-07-16 19:42:08,-21.1211,-56.4819,76.05,57,99,6.11
90,Tonekabon,IR,2021-07-16 19:42:33,36.8163,50.8738,75.15,76,78,3.51
91,Gat,IL,2021-07-16 19:42:33,31.61,34.7642,83.39,79,0,2.89
92,Ketchikan,US,2021-07-16 19:42:34,55.3422,-131.6461,61.27,72,90,12.66
93,Flinders,AU,2021-07-16 19:42:34,-34.5833,150.8552,56.37,62,84,3.0
94,Guerrero Negro,MX,2021-07-16 19:38:56,27.9769,-114.0611,78.44,55,39,16.28
95,Bentiu,SS,2021-07-16 19:42:35,9.2333,29.8333,72.7,91,99,2.68
96,Provideniya,RU,2021-07-16 19:42:35,64.3833,-173.3,46.92,97,100,8.43
97,Yulara,AU,2021-07-16 19:42:36,-25.2406,130.9889,40.84,60,38,5.75
98,Longonjo,AO,2021-07-16 19:42:36,-12.9067,15.2533,63.57,32,36,2.86
99,Solnechnyy,RU,2021-07-16 19:42:36,50.7214,136.6319,71.96,90,51,2.64
100,Ternate,ID,2021-07-16 19:42:37,0.8,127.4,77.68,86,100,12.59
101,Te Anau,NZ,2021-07-16 19:42:37,-45.4167,167.7167,44.2,94,95,1.66
102,Agadez,NE,2021-07-16 19:42:38,19.75,10.25,95.41,14,14,7.87
103,Bouna,CI,2021-07-16 19:42:38,9.2667,-3.0,78.21,73,100,2.95
104,Ambunti,PG,2021-07-16 19:42:38,-4.2365,142.8448,73.45,99,100,1.45
105,Yellowknife,CA,2021-07-16 19:40:03,62.456,-114.3525,53.33,46,75,0.0
106,Black Forest,US,2021-07-16 19:42:39,39.0131,-104.7008,86.7,29,75,4.0
107,Chokurdakh,RU,2021-07-16 19:42:39,70.6333,147.9167,57.83,56,100,3.74
108,Anadyr,RU,2021-07-16 19:42:40,64.75,177.4833,52.3,81,75,13.0
109,Cidreira,BR,2021-07-16 19:42:40,-30.1811,-50.2056,57.29,75,10,6.2
110,Bredasdorp,ZA,2021-07-16 19:42:40,-34.5322,20.0403,43.92,87,2,6.91
111,Singaraja,ID,2021-07-16 19:42:41,-8.112,115.0882,76.62,81,98,6.13
112,Rocha,UY,2021-07-16 19:42:41,-34.4833,-54.3333,54.05,69,0,5.59
113,Narsaq,GL,2021-07-16 19:42:41,60.9167,-46.05,59.22,56,100,3.15
114,Malangali,TZ,2021-07-16 19:42:42,-8.5667,34.85,58.91,56,1,13.2
115,Mackay,AU,2021-07-16 19:42:42,-21.15,149.2,62.58,88,40,1.14
116,San Quintin,MX,2021-07-16 19:42:42,30.4833,-115.95,74.07,68,8,12.59
117,Talnakh,RU,2021-07-16 19:42:43,69.4865,88.3972,48.25,69,100,2.33
118,Castro,BR,2021-07-16 19:42:43,-24.7911,-50.0119,57.24,98,100,1.95
119,Ulaangom,MN,2021-07-16 19:42:43,49.9811,92.0667,71.42,43,100,2.28
120,Pevek,RU,2021-07-16 19:42:44,69.7008,170.3133,37.24,89,41,10.16
121,Farmington,US,2021-07-16 19:37:52,36.7281,-108.2187,94.69,22,1,4.61
122,Moron,AR,2021-07-16 19:42:44,-34.6534,-58.6198,62.29,59,42,8.01
123,Russell,US,2021-07-16 19:42:45,32.3502,-85.1999,90.91,57,20,3.44
124,Igarka,RU,2021-07-16 19:42:45,67.4667,86.5833,48.36,74,99,11.39
125,Georgetown,MY,2021-07-16 19:42:45,5.4112,100.3354,82.89,79,20,1.99
126,Avarua,CK,2021-07-16 19:37:52,-21.2078,-159.775,75.25,88,75,13.8
127,Caxito,AO,2021-07-16 19:42:46,-8.5785,13.6643,74.05,92,14,1.14
128,Nyurba,RU,2021-07-16 19:42:46,63.2842,118.3319,53.13,64,5,5.44
129,Pekalongan,ID,2021-07-16 19:42:47,-6.8886,109.6753,69.01,73,90,4.45
130,Namatanai,PG,2021-07-16 19:42:47,-3.6667,152.4333,79.57,87,90,6.11
131,Gazanjyk,TM,2021-07-16 19:42:47,39.2446,55.5154,87.75,21,98,4.03
132,Khanu Woralaksaburi,TH,2021-07-16 19:42:48,16.0617,99.8606,77.99,87,100,1.9
133,Dingle,PH,2021-07-16 19:42:48,10.9995,122.6711,75.49,91,98,6.89
134,Inirida,CO,2021-07-16 19:42:49,3.8653,-67.9239,71.91,99,100,1.99
135,Saskylakh,RU,2021-07-16 19:42:49,71.9167,114.0833,42.3,88,100,11.14
136,Comodoro Rivadavia,AR,2021-07-16 19:42:50,-45.8667,-67.5,51.66,43,40,14.97
137,Aklavik,CA,2021-07-16 19:42:50,68.2191,-135.0107,61.63,63,75,2.3
138,Pedasi,PA,2021-07-16 19:42:50,7.5333,-80.0333,82.98,74,100,9.28
139,Hithadhoo,MV,2021-07-16 19:42:51,-0.6,73.0833,83.17,75,69,11.61
140,Kodiak,US,2021-07-16 19:42:51,57.79,-152.4072,74.71,43,1,12.66
141,Hualmay,PE,2021-07-16 19:42:51,-11.0964,-77.6139,67.55,72,14,10.27
142,Ko Samui,TH,2021-07-16 19:42:52,9.5357,99.9357,83.05,75,96,6.44
143,Sechura,PE,2021-07-16 19:42:52,-5.5569,-80.8222,76.64,57,18,13.91
144,Lompoc,US,2021-07-16 19:39:44,34.6391,-120.4579,85.69,74,20,8.05
145,Sobolevo,RU,2021-07-16 19:42:53,54.4299,31.8996,69.13,79,0,7.02
146,Gencsapati,HU,2021-07-16 19:42:53,47.285,16.5958,76.01,56,66,14.2
147,Shubarshi,KZ,2021-07-16 19:42:53,48.5872,57.1869,79.54,28,57,8.19
148,Gornopravdinsk,RU,2021-07-16 19:42:54,60.05,69.9,49.86,94,74,4.68
149,Ponta Do Sol,PT,2021-07-16 19:42:54,32.6667,-17.1,73.71,81,3,3.06
150,Port Lincoln,AU,2021-07-16 19:42:55,-34.7333,135.8667,50.45,59,92,26.57
151,Acarau,BR,2021-07-16 19:42:55,-2.8856,-40.12,81.99,71,4,14.74
152,Yaan,NG,2021-07-16 19:42:55,7.3833,8.5667,71.47,91,100,7.76
153,Bluff,NZ,2021-07-16 19:42:56,-46.6,168.3333,43.81,93,99,8.72
154,Yining,CN,2021-07-16 19:42:56,29.0361,114.5636,77.94,87,100,1.95
155,Torbay,CA,2021-07-16 19:42:57,47.6666,-52.7314,75.97,70,75,19.57
156,Mount Gambier,AU,2021-07-16 19:42:57,-37.8333,140.7667,48.11,93,75,19.57
157,Longyearbyen,SJ,2021-07-16 19:39:36,78.2186,15.6401,48.04,81,75,2.3
158,Sao Joao Da Barra,BR,2021-07-16 19:42:58,-21.6403,-41.0511,80.69,75,5,7.72
159,Saint-Philippe,RE,2021-07-16 19:42:58,-21.3585,55.7679,69.39,81,42,15.52
160,Ariquemes,BR,2021-07-16 19:42:58,-9.9133,-63.0408,96.71,25,47,2.48
161,Huarmey,PE,2021-07-16 19:42:59,-10.0681,-78.1522,69.21,69,1,10.8
162,Kiruna,SE,2021-07-16 19:42:59,67.8557,20.2251,52.72,66,90,9.22
163,Katsuura,JP,2021-07-16 19:43:00,35.1333,140.3,78.12,90,20,3.49
164,Rawlins,US,2021-07-16 19:43:00,41.7911,-107.2387,85.89,14,1,4.97
165,Labrea,BR,2021-07-16 19:43:00,-7.2586,-64.7981,90.68,45,85,3.11
166,Cedar City,US,2021-07-16 19:43:01,37.6775,-113.0619,83.37,33,1,13.2
167,Mount Hagen,PG,2021-07-16 19:43:01,-5.8581,144.2274,56.88,94,100,1.66
168,Shache,CN,2021-07-16 19:43:01,38.4167,77.2406,80.26,35,1,13.18
169,Kavieng,PG,2021-07-16 19:43:02,-2.5744,150.7967,82.18,79,85,6.31
170,Nantucket,US,2021-07-16 19:43:02,41.2835,-70.0995,86.97,88,75,12.66
171,Conde,BR,2021-07-16 19:43:02,-7.2597,-34.9075,78.26,89,75,10.36
172,Vila,PT,2021-07-16 19:43:03,42.0304,-8.1588,82.74,47,0,1.72
173,Blagoyevo,RU,2021-07-16 19:43:03,63.3667,47.9167,59.65,83,67,3.87
174,Eislingen,DE,2021-07-16 19:43:04,48.6951,9.7068,70.23,90,98,2.28
175,Vostok,RU,2021-07-16 19:43:04,46.4856,135.8833,66.25,96,3,4.68
176,Wanning,CN,2021-07-16 19:43:04,18.8003,110.3967,79.21,88,8,3.51
177,Batagay-Alyta,RU,2021-07-16 19:43:05,67.8006,130.4114,58.26,50,100,3.09
178,Pontes E Lacerda,BR,2021-07-16 19:43:05,-15.2261,-59.3353,93.67,23,0,4.97
179,Kuito,AO,2021-07-16 19:43:06,-12.3833,16.9333,58.71,34,13,2.91
180,Tateyama,JP,2021-07-16 19:43:06,34.9833,139.8667,78.03,90,81,4.23
181,Umm Kaddadah,SD,2021-07-16 19:43:06,13.6017,26.6876,90.64,37,20,12.97
182,Aksha,RU,2021-07-16 19:43:07,50.2814,113.2867,63.0,96,100,3.51
183,Yuxia,CN,2021-07-16 19:43:07,34.0615,108.6291,77.61,77,2,4.76
184,Dejen,ET,2021-07-16 19:43:07,10.1667,38.1333,55.27,86,100,4.07
185,Bonfim,BR,2021-07-16 19:43:08,3.0833,-59.95,75.04,92,99,3.71
186,Dunedin,NZ,2021-07-16 19:43:08,-45.8742,170.5036,47.8,90,59,1.01
187,Grindavik,IS,2021-07-16 19:43:08,63.8424,-22.4338,52.27,87,75,16.11
188,Riyadh,SA,2021-07-16 19:42:33,24.6877,46.7219,98.74,22,99,15.75
189,Port Hardy,CA,2021-07-16 19:43:09,50.6996,-127.4199,59.18,82,75,3.44
190,Mayor Pablo Lagerenza,PY,2021-07-16 19:43:09,-19.9309,-60.7718,67.14,65,99,3.53
191,Shieli,KZ,2021-07-16 19:43:10,44.1667,66.75,78.73,26,8,14.05
192,Boende,CD,2021-07-16 19:43:10,-0.2167,20.8667,77.36,55,76,3.38
193,Yenagoa,NG,2021-07-16 19:43:11,4.9247,6.2642,72.07,93,100,2.3
194,Lilongwe,MW,2021-07-16 19:43:11,-13.9669,33.7873,57.42,81,63,8.05
195,Ostrovnoy,RU,2021-07-16 19:43:11,68.0531,39.5131,54.54,71,59,6.31
196,Dukhovshchina,RU,2021-07-16 19:43:12,55.1919,32.4111,70.09,82,25,4.18
197,Thompson,CA,2021-07-16 19:43:12,55.7435,-97.8558,78.96,53,90,11.5
198,Briancon,FR,2021-07-16 19:43:13,44.9,6.65,56.95,88,72,5.14
199,Caohai,CN,2021-07-16 19:43:13,26.8661,104.2841,59.41,97,100,1.7
200,Shingu,JP,2021-07-16 19:43:13,33.7333,135.9833,73.9,93,90,6.26
201,Paamiut,GL,2021-07-16 19:43:14,61.994,-49.6678,43.86,83,100,5.59
202,Khatanga,RU,2021-07-16 19:43:14,71.9667,102.5,39.49,74,8,4.5
203,Nevsehir,TR,2021-07-16 19:43:14,38.9167,34.6667,78.01,39,0,18.41
204,Manadhoo,MV,2021-07-16 19:43:15,5.7667,73.3833,82.33,78,7,11.99
205,Kodinsk,RU,2021-07-16 19:43:15,58.6881,99.1844,60.64,83,100,1.97
206,Bandarbeyla,SO,2021-07-16 19:43:15,9.4942,50.8122,76.64,79,70,34.31
207,Nishihara,JP,2021-07-16 19:43:16,26.1842,127.7558,79.88,86,75,4.61
208,Omboue,GA,2021-07-16 19:43:16,-1.5746,9.2618,72.95,78,20,9.6
209,Buraydah,SA,2021-07-16 19:43:17,26.326,43.975,97.25,13,82,16.78
210,Dongkan,CN,2021-07-16 19:43:17,33.9997,119.8308,73.45,97,96,3.31
211,Tome,CL,2021-07-16 19:43:18,-36.6167,-72.95,52.41,62,16,12.17
212,Havoysund,NO,2021-07-16 19:43:18,70.9963,24.6622,52.03,86,100,29.39
213,Lorengau,PG,2021-07-16 19:43:19,-2.0226,147.2712,81.55,84,90,7.74
214,Maningrida,AU,2021-07-16 19:43:19,-12.0667,134.2667,66.38,92,79,6.17
215,Balabac,PH,2021-07-16 19:43:20,7.9868,117.0645,80.35,77,100,10.94
216,Kurilsk,RU,2021-07-16 19:43:20,45.2333,147.8833,62.19,82,95,3.65
217,Namtsy,RU,2021-07-16 19:43:20,62.7161,129.6658,57.31,47,2,12.21
218,Mitu,CO,2021-07-16 19:40:01,1.1983,-70.1733,78.64,93,39,3.31
219,Kotaparh,IN,2021-07-16 19:43:21,19.15,82.35,76.6,84,83,4.79
220,Lakes Entrance,AU,2021-07-16 19:43:21,-37.8811,147.981,50.18,76,100,9.75
221,Egvekinot,RU,2021-07-16 19:43:21,66.3167,-179.1667,41.81,98,100,6.6
222,Deputatskiy,RU,2021-07-16 19:43:22,69.3,139.9,56.01,46,91,3.74
223,Vila Velha,BR,2021-07-16 19:38:39,-20.3297,-40.2925,80.55,65,20,12.66
224,Banda Aceh,ID,2021-07-16 19:43:22,5.5577,95.3222,78.49,85,12,6.44
225,Bambous Virieux,MU,2021-07-16 19:43:23,-20.3428,57.7575,70.05,83,40,11.5
226,Kudat,MY,2021-07-16 19:43:23,6.8837,116.8477,78.73,89,20,0.0
227,Victoria,HK,2021-07-16 19:42:47,22.2855,114.1577,85.32,86,100,1.01
228,Amapa,BR,2021-07-16 19:43:24,1.0,-52.0,78.17,95,45,3.65
229,Saldanha,ZA,2021-07-16 19:43:24,-33.0117,17.9442,55.67,69,0,9.78
230,Ulaanbaatar,MN,2021-07-16 19:43:24,47.9077,106.8832,57.33,88,40,2.24
231,Mogadishu,SO,2021-07-16 19:42:39,2.0371,45.3438,76.73,81,99,22.32
232,Vardo,NO,2021-07-16 19:43:25,70.3705,31.1107,57.4,93,75,4.61
233,Notodden,NO,2021-07-16 19:43:25,59.5594,9.2585,72.77,77,0,1.7
234,Ancud,CL,2021-07-16 19:43:26,-41.8697,-73.8203,47.73,73,24,10.96
235,Valley City,US,2021-07-16 19:43:26,46.9233,-98.0032,85.19,25,24,13.27
236,Esmeralda,CU,2021-07-16 19:43:26,21.8525,-78.1169,81.64,61,38,12.08
237,Clyde River,CA,2021-07-16 19:43:27,70.4692,-68.5914,52.03,71,20,12.66
238,Lumsden,CA,2021-07-16 19:43:27,50.6501,-104.8678,86.99,31,1,5.99
239,Fortuna,US,2021-07-16 19:43:27,40.5982,-124.1573,82.47,73,1,5.01
240,Caribou,US,2021-07-16 19:43:28,46.8606,-68.012,80.29,63,90,9.22
241,Korgen,NO,2021-07-16 19:43:28,66.0771,13.8153,59.13,97,100,7.76
242,Saint-Pierre,RE,2021-07-16 19:43:29,-21.3393,55.4781,69.48,76,20,16.11
243,Bambanglipuro,ID,2021-07-16 19:43:29,-7.95,110.2833,72.07,88,48,4.47
244,Dwarka,IN,2021-07-16 19:43:29,22.2394,68.9678,83.86,84,100,13.09
245,Lumphat,KH,2021-07-16 19:43:30,13.4878,106.9816,72.19,98,100,0.81
246,Southbridge,US,2021-07-16 19:43:30,42.0751,-72.0334,91.99,64,26,9.33
247,Cambridge,CA,2021-07-16 19:40:23,43.3601,-80.3127,77.14,63,75,1.01
248,Tuatapere,NZ,2021-07-16 19:43:31,-46.1333,167.6833,43.83,96,100,3.29
249,San Patricio,US,2021-07-16 19:43:31,28.017,-97.5169,93.92,54,18,17.58
250,Broome,US,2021-07-16 19:43:32,42.2506,-75.833,82.71,65,75,4.0
251,Faanui,PF,2021-07-16 19:43:32,-16.4833,-151.75,79.95,64,6,25.1
252,Atar,MR,2021-07-16 19:43:32,20.5169,-13.0499,94.71,28,6,8.37
253,Ayabaca,PE,2021-07-16 19:43:33,-4.6398,-79.7149,58.96,60,93,5.75
254,Vilhena,BR,2021-07-16 19:43:33,-12.7406,-60.1458,88.02,29,0,8.05
255,Hof,DE,2021-07-16 19:43:33,50.3167,11.9167,66.96,91,36,13.0
256,Arraial Do Cabo,BR,2021-07-16 19:43:34,-22.9661,-42.0278,75.16,78,0,14.97
257,Cabo San Lucas,MX,2021-07-16 19:43:34,22.8909,-109.9124,99.52,62,80,1.23
258,Barra Patuca,HN,2021-07-16 19:43:34,15.8,-84.2833,84.31,64,6,6.69
259,Erzin,TR,2021-07-16 19:43:35,36.9559,36.2,81.32,77,0,1.01
260,Naze,JP,2021-07-16 19:43:35,28.3667,129.4833,76.35,84,31,5.97
261,Astana,KZ,2021-07-16 19:43:36,51.1801,71.446,58.95,72,0,8.95
262,Shakiso,ET,2021-07-16 19:43:36,5.75,38.9167,59.36,81,100,2.51
263,Mahebourg,MU,2021-07-16 19:43:36,-20.4081,57.7,70.09,83,40,11.5
264,Kathmandu,NP,2021-07-16 19:42:33,27.7167,85.3167,70.02,100,75,3.44
265,Pascagoula,US,2021-07-16 19:43:37,30.3658,-88.5561,80.56,94,90,4.61
266,Lebu,CL,2021-07-16 19:43:37,-37.6167,-73.65,51.01,61,9,15.37
267,Coahuayana,MX,2021-07-16 19:43:38,18.7333,-103.6833,88.75,59,94,2.55
268,Bako,ET,2021-07-16 19:43:38,5.7833,36.5667,66.6,73,99,3.42
269,Lithgow,AU,2021-07-16 19:43:38,-33.4833,150.15,46.71,97,97,13.6
270,Atambua,ID,2021-07-16 19:43:39,-9.1061,124.8925,67.26,79,17,4.92
271,Tazovskiy,RU,2021-07-16 19:43:39,67.4667,78.7,46.62,68,100,10.51
272,Xuanhua,CN,2021-07-16 19:43:40,40.6103,115.0447,71.74,93,93,5.61
273,Reconquista,AR,2021-07-16 19:43:40,-29.15,-59.65,64.62,50,0,5.3
274,Gurupa,BR,2021-07-16 19:43:40,-1.405,-51.64,84.83,68,79,1.72
275,Makushino,RU,2021-07-16 19:43:41,55.2103,67.2442,55.33,73,1,5.91
276,Marawi,PH,2021-07-16 19:43:41,7.9986,124.2928,68.65,94,100,4.21
277,Saint-Francois,FR,2021-07-16 19:43:42,46.4154,3.9054,64.47,88,40,11.5
278,Meulaboh,ID,2021-07-16 19:43:42,4.1363,96.1285,76.26,91,59,4.47
279,Linqiong,CN,2021-07-16 19:43:43,30.4159,103.4609,76.82,93,15,1.79
280,Sur,OM,2021-07-16 19:41:50,22.5667,59.5289,83.98,78,82,13.18
281,Shiraz,IR,2021-07-16 19:43:43,29.6036,52.5388,83.64,30,40,4.61
282,Beyneu,KZ,2021-07-16 19:43:43,45.3167,55.2,85.05,20,0,3.67
283,Aracataca,CO,2021-07-16 19:43:44,10.5918,-74.1898,94.14,44,77,10.6
284,Kruisfontein,ZA,2021-07-16 19:43:44,-34.0033,24.7314,50.31,30,0,4.43
285,Saryozek,KZ,2021-07-16 19:43:45,44.3583,77.9753,65.14,53,43,2.86
286,Beringovskiy,RU,2021-07-16 19:43:45,63.05,179.3167,46.42,95,100,9.69
287,Zhigansk,RU,2021-07-16 19:43:45,66.7697,123.3711,57.96,56,43,11.77
288,Tiznit,MA,2021-07-16 19:43:46,29.5833,-9.5,85.37,24,43,3.49
289,Mbanza-Ngungu,CD,2021-07-16 19:43:46,-5.25,14.8667,74.95,50,1,4.0
290,Havre,FR,2021-07-16 19:43:47,49.5833,0.3333,64.83,82,0,9.22
291,Oktyabrskoye,RU,2021-07-16 19:43:47,43.0645,44.7417,64.54,72,0,8.95
292,Alyangula,AU,2021-07-16 19:43:47,-13.8483,136.4192,66.07,94,100,3.44
293,Xuddur,SO,2021-07-16 19:43:48,4.1213,43.8894,74.17,61,51,22.39
294,Bethel,US,2021-07-16 19:43:48,41.3712,-73.414,93.72,61,20,1.01
295,Turochak,RU,2021-07-16 19:43:48,52.2576,87.1224,54.68,96,14,3.58
296,Pervomayskiy,RU,2021-07-16 19:43:49,53.2485,40.2871,69.51,76,48,5.53
297,Najran,SA,2021-07-16 19:43:49,17.4924,44.1277,90.25,17,100,15.19
298,Tyukhtet,RU,2021-07-16 19:43:50,56.5389,89.3011,53.49,79,100,1.83
299,Providencia,MX,2021-07-16 19:43:50,28.7167,-111.5833,101.21,43,18,11.99
300,Namibe,AO,2021-07-16 19:43:50,-15.1961,12.1522,66.94,82,0,5.17
301,Shenjiamen,CN,2021-07-16 19:43:51,29.9576,122.298,78.1,92,100,11.56
302,The Valley,AI,2021-07-16 19:43:51,18.217,-63.0578,85.1,78,54,19.48
303,Olkhovka,RU,2021-07-16 19:43:51,53.2115,60.6069,61.99,82,100,4.92
304,Saint-Maximin-La-Sainte-Baume,FR,2021-07-16 19:43:52,43.4521,5.8622,75.25,62,39,1.59
305,Lukovetskiy,RU,2021-07-16 19:43:52,64.2956,41.9211,60.78,93,1,5.77
306,Gamba,GA,2021-07-16 19:43:52,-2.65,10.0,72.21,81,58,6.91
307,Moissala,TD,2021-07-16 19:43:53,8.3404,17.7663,75.47,77,50,3.2
308,Saint George,US,2021-07-16 19:39:47,37.1041,-113.5841,97.63,37,0,1.01
309,Okhotsk,RU,2021-07-16 19:43:53,59.3833,143.3,56.7,94,100,19.24
310,Mbandaka,CD,2021-07-16 19:43:54,0.0487,18.2603,76.1,61,82,1.83
311,Narsingdi,BD,2021-07-16 19:39:07,23.9208,90.7181,84.22,91,100,4.94
312,Geraldton,AU,2021-07-16 19:43:54,-28.7667,114.6,55.81,94,100,5.75
313,Maceio,BR,2021-07-16 19:41:33,-9.6658,-35.7353,76.44,78,90,10.36
314,Lake Havasu City,US,2021-07-16 19:43:55,34.4839,-114.3224,107.06,22,1,3.0
315,Roma,US,2021-07-16 19:41:37,43.2128,-75.4557,82.13,65,40,1.01
316,Belousovka,KZ,2021-07-16 19:43:55,50.1339,82.5239,59.85,59,40,6.71
317,Panguna,PG,2021-07-16 19:43:56,-6.3164,155.4848,68.81,89,100,2.84
318,Dukat,RU,2021-07-16 19:43:56,62.55,155.55,62.6,58,73,7.36
319,Marystown,CA,2021-07-16 19:43:56,47.1666,-55.1483,65.8,81,96,10.16
320,Kulhudhuffushi,MV,2021-07-16 19:43:57,6.6221,73.07,82.08,79,24,11.45
321,Gasa,PS,2021-07-16 19:43:57,31.5,34.4667,82.38,77,0,3.89
322,Ixtapa,MX,2021-07-16 19:43:44,20.7,-105.2,86.23,74,75,4.61
323,Taoudenni,ML,2021-07-16 19:40:57,22.6783,-3.9836,106.59,16,91,11.95
324,Fairbanks,US,2021-07-16 19:42:43,64.8378,-147.7164,66.54,65,75,0.0
325,Ganzhou,CN,2021-07-16 19:43:58,28.8184,115.4327,79.52,85,100,3.85
326,Alofi,NU,2021-07-16 19:43:59,-19.0595,-169.9187,75.09,94,22,10.36
327,Camocim,BR,2021-07-16 19:43:59,-2.9022,-40.8411,83.3,69,8,15.32
328,Necochea,AR,2021-07-16 19:43:59,-38.5473,-58.7368,61.03,51,58,10.42
329,Shubarkuduk,KZ,2021-07-16 19:44:00,49.1447,56.4872,81.32,36,85,13.87
330,Dunda,TZ,2021-07-16 19:44:00,-8.1167,34.25,58.96,54,0,3.29
331,Kidal,ML,2021-07-16 19:44:00,18.4411,1.4078,97.74,10,4,7.67
332,Nizhniy Odes,RU,2021-07-16 19:44:01,63.6445,54.856,60.08,63,97,4.23
333,Walvis Bay,NA,2021-07-16 19:44:01,-22.9575,14.5053,72.55,15,2,13.8
334,Sabang,ID,2021-07-16 19:44:01,5.8933,95.3214,81.41,79,10,6.49
335,Caravelas,BR,2021-07-16 19:44:02,-17.7125,-39.2481,74.14,80,0,8.43
336,Tucurui,BR,2021-07-16 19:44:02,-3.7661,-49.6725,89.62,50,22,4.21
337,Vao,NC,2021-07-16 19:44:02,-22.6667,167.4833,73.4,88,24,14.05
338,Berlevag,NO,2021-07-16 19:44:03,70.8578,29.0864,53.6,80,100,26.64
339,Adamovka,RU,2021-07-16 19:44:03,51.5223,59.9396,69.69,53,100,8.61
340,Yumen,CN,2021-07-16 19:44:04,40.2833,97.2,79.16,28,0,5.5
341,Mabaruma,GY,2021-07-16 19:44:04,8.2,-59.7833,81.82,73,46,6.51
342,Portland,US,2021-07-16 19:41:53,45.5234,-122.6762,76.14,57,75,1.99
343,Wooster,US,2021-07-16 19:41:44,40.8051,-81.9351,85.35,69,20,10.36
344,Vila Franca Do Campo,PT,2021-07-16 19:44:05,37.7167,-25.4333,72.01,81,77,4.27
345,Rudnichnyy,RU,2021-07-16 19:44:05,59.617,52.4703,58.26,97,2,4.59
346,Roswell,US,2021-07-16 19:39:57,34.0232,-84.3616,92.57,60,75,1.01
347,Qostanay,KZ,2021-07-16 19:44:06,53.1667,63.5833,62.89,77,0,4.47
348,Avera,US,2021-07-16 19:44:06,33.194,-82.5271,92.7,56,90,2.55
349,Almaznyy,RU,2021-07-16 19:44:07,48.0448,40.045,80.74,79,99,7.11
350,Brunico,IT,2021-07-16 19:44:07,46.7958,11.9364,61.95,94,78,3.18
351,Leeuwarden,NL,2021-07-16 19:43:04,53.2014,5.8086,64.99,79,75,11.5
352,Stolin,BY,2021-07-16 19:44:07,51.8912,26.846,72.27,81,23,7.29
353,Usinsk,RU,2021-07-16 19:44:08,65.9939,57.5281,54.19,78,0,6.69
354,Oktyabrskiy,RU,2021-07-16 19:44:08,54.4815,53.471,64.33,87,79,3.15
355,Tonstad,NO,2021-07-16 19:44:09,58.6626,6.7169,64.54,79,0,6.55
356,Sindou,BF,2021-07-16 19:44:09,10.6667,-5.1667,71.06,89,100,6.33
357,Louis Trichardt,ZA,2021-07-16 19:44:10,-23.0439,29.9032,49.24,81,50,3.29
358,Durazno,UY,2021-07-16 19:42:09,-33.4131,-56.5006,49.95,81,75,6.91
359,Elizabeth City,US,2021-07-16 19:39:23,36.2946,-76.2511,97.02,69,1,10.36
360,Rakitnoye,RU,2021-07-16 19:44:10,50.8389,35.8515,73.65,87,0,6.67
361,Mitsamiouli,KM,2021-07-16 19:44:11,-11.3847,43.2844,77.38,66,46,10.36
362,Nalut,LY,2021-07-16 19:44:11,30.3333,10.85,96.48,20,4,13.78
363,Alihe,CN,2021-07-16 19:44:12,50.5667,123.7167,63.72,85,100,2.28
364,Benghazi,LY,2021-07-16 19:44:12,32.1167,20.0667,79.9,76,0,12.59
365,Mayo,US,2021-07-16 19:44:12,38.8876,-76.5119,97.81,60,1,4.0
366,Chuy,UY,2021-07-16 19:44:13,-33.6971,-53.4616,53.26,75,0,4.32
367,Uglovskoye,RU,2021-07-16 19:44:13,51.3557,80.1942,58.6,60,40,12.28
368,Belyy Yar,RU,2021-07-16 19:44:13,53.6039,91.3903,62.49,94,40,6.71
369,Zeya,RU,2021-07-16 19:44:14,53.75,127.2667,57.31,84,1,4.99
370,Pavlovka,RU,2021-07-16 19:44:14,52.6897,47.1405,65.17,87,54,4.54
371,Bemidji,US,2021-07-16 19:41:52,47.4736,-94.8803,86.56,38,1,10.36
372,Baiyin,CN,2021-07-16 19:44:15,36.5583,104.2081,76.08,59,89,0.31
373,Tura,IN,2021-07-16 19:44:15,25.5198,90.2201,74.14,97,100,5.68
374,Qaanaaq,GL,2021-07-16 19:44:16,77.484,-69.3632,36.43,98,98,11.01
375,Ambilobe,MG,2021-07-16 19:44:16,-13.2,49.05,65.95,76,50,3.78
376,Elban,RU,2021-07-16 19:44:17,50.1018,136.5094,72.39,95,62,5.17
377,Amuntai,ID,2021-07-16 19:44:17,-2.4177,115.2494,71.53,99,100,2.39
378,Sinnamary,GF,2021-07-16 19:44:18,5.3833,-52.95,81.0,76,31,6.8
379,College,US,2021-07-16 19:44:18,64.8569,-147.8028,71.26,65,75,0.0
380,Aquiraz,BR,2021-07-16 19:44:18,-3.9014,-38.3911,84.29,77,0,8.23
381,Cockburn Town,TC,2021-07-16 19:44:19,21.4612,-71.1419,82.36,74,40,13.8
382,Hambantota,LK,2021-07-16 19:44:19,6.1241,81.1185,79.07,82,74,14.34
383,Kavaratti,IN,2021-07-16 19:44:20,10.5669,72.642,82.54,77,97,16.84
384,Panaba,MX,2021-07-16 19:44:20,21.2833,-88.2667,89.85,50,66,16.08
385,Kingston,JM,2021-07-16 19:41:26,17.997,-76.7936,86.95,66,20,23.02
386,Milos,GR,2021-07-16 19:44:21,36.75,24.4333,75.92,68,0,4.36
387,Jibuti,DJ,2021-07-16 19:44:21,11.5,42.5,94.42,35,100,5.95
388,Milkovo,RU,2021-07-16 19:44:21,54.7167,158.6167,57.47,86,97,1.28
389,Orlik,RU,2021-07-16 19:44:22,52.5178,99.825,52.47,92,83,1.59
390,Kandrian,PG,2021-07-16 19:44:22,-6.2167,149.55,78.33,89,100,7.4
391,Fort Nelson,CA,2021-07-16 19:44:22,58.8053,-122.7002,47.79,81,90,5.75
392,Khani,GE,2021-07-16 19:44:23,41.9563,42.9566,62.17,64,0,4.94
393,Nuevitas,CU,2021-07-16 19:44:23,21.5453,-77.2644,81.84,63,19,12.86
394,Turukhansk,RU,2021-07-16 19:44:23,65.8167,87.9833,56.35,91,97,7.61
395,Lillooet,CA,2021-07-16 19:44:24,50.6856,-121.942,81.32,41,28,7.05
396,Boo,SE,2021-07-16 19:44:24,59.3333,18.2833,69.48,62,0,6.91
397,Las Palmas,ES,2021-07-16 19:44:25,28.4204,-14.0131,75.99,57,20,12.66
398,Kloulklubed,PW,2021-07-16 19:44:25,7.0419,134.2556,77.5,82,100,18.75
399,Jacareacanga,BR,2021-07-16 19:44:25,-6.2222,-57.7528,97.11,38,0,4.61
400,Abu Kamal,SY,2021-07-16 19:44:26,34.4506,40.9171,95.54,21,0,5.68
401,Hamilton,US,2021-07-16 19:42:33,39.1834,-84.5333,86.63,86,90,17.27
402,Zyryanka,RU,2021-07-16 19:44:26,65.75,150.85,63.75,62,100,4.29
403,Medea,DZ,2021-07-16 19:44:27,36.2642,2.7539,64.85,42,0,4.07
404,Sakmara,RU,2021-07-16 19:44:27,51.9844,55.3338,73.42,75,100,2.95
405,La Ronge,CA,2021-07-16 19:44:27,55.1001,-105.2842,71.82,46,75,8.05
406,Severo-Kurilsk,RU,2021-07-16 19:44:28,50.6789,156.125,57.92,68,90,4.21
407,Quatre Cocos,MU,2021-07-16 19:44:28,-20.2078,57.7625,69.91,77,70,13.09
408,Tafresh,IR,2021-07-16 19:44:29,34.692,50.013,70.32,49,0,7.81
409,Am Timan,TD,2021-07-16 19:44:29,11.0297,20.2827,80.8,63,63,5.93
410,Jian,CN,2021-07-16 19:44:30,27.1172,114.9793,76.08,88,100,4.27
411,Grand Gaube,MU,2021-07-16 19:44:30,-20.0064,57.6608,70.2,79,90,5.01
412,Calvillo,MX,2021-07-16 19:44:30,21.85,-102.7167,74.34,65,100,5.59
413,Westport,US,2021-07-16 19:44:31,41.1415,-73.3579,96.62,56,1,1.99
414,Lagoa,PT,2021-07-16 19:44:31,39.05,-27.9833,66.96,73,2,16.04
415,Billings,US,2021-07-16 19:40:04,45.7833,-108.5007,95.29,20,20,3.44
416,Sexsmith,CA,2021-07-16 19:44:32,55.35,-118.786,49.35,100,90,19.57
417,Norman Wells,CA,2021-07-16 19:44:32,65.282,-126.8329,59.04,38,40,9.22
418,Margate,GB,2021-07-16 19:44:33,51.3813,1.3862,64.26,80,0,3.0
419,San Lorenzo,PY,2021-07-16 19:42:54,-25.3333,-57.5333,67.59,59,75,1.99
420,Byron Bay,AU,2021-07-16 19:44:33,-28.65,153.6167,58.89,48,1,13.71
421,Arroio Grande,BR,2021-07-16 19:44:33,-32.2375,-53.0869,56.35,75,0,4.63
422,Glendive,US,2021-07-16 19:44:34,47.1053,-104.7125,102.49,21,1,5.75
423,Mungwi,ZM,2021-07-16 19:44:34,-10.1732,31.3694,55.17,64,6,5.32
424,Klaksvik,FO,2021-07-16 19:44:35,62.2266,-6.589,54.52,84,13,25.43
425,Moose Factory,CA,2021-07-16 19:44:35,51.2585,-80.6094,75.2,60,1,12.66
426,Alice Springs,AU,2021-07-16 19:43:16,-23.7,133.8833,38.75,52,4,5.75
427,Chapais,CA,2021-07-16 19:44:36,49.7834,-74.8492,69.58,54,93,8.57
428,Narrabri,AU,2021-07-16 19:44:36,-30.3167,149.7833,47.52,65,61,10.36
429,Camacha,PT,2021-07-16 19:44:36,33.0833,-16.3333,68.76,78,75,10.36
430,Port Augusta,AU,2021-07-16 19:44:37,-32.5,137.7667,50.14,67,100,13.91
431,Pundaguitan,PH,2021-07-16 19:44:37,6.3711,126.1689,82.08,73,100,2.37
432,Poggibonsi,IT,2021-07-16 19:44:37,43.4724,11.1456,74.43,71,82,4.0
433,Linxia,CN,2021-07-16 19:44:38,35.6003,103.2064,62.8,79,47,4.27
434,Cabedelo,BR,2021-07-16 19:44:38,-6.9811,-34.8339,79.47,80,5,9.73
435,Sao Filipe,CV,2021-07-16 19:44:38,14.8961,-24.4956,74.73,79,0,7.25
436,Toropets,RU,2021-07-16 19:44:39,56.4978,31.6353,70.47,85,26,3.4
437,Reforma,MX,2021-07-16 19:44:39,18.1,-91.0167,92.37,48,35,8.21
438,Shenkursk,RU,2021-07-16 19:44:40,62.1091,42.896,62.46,83,86,4.12
439,Faya,SA,2021-07-16 19:44:40,18.3851,42.4509,73.51,39,100,5.19
440,Hudson Bay,CA,2021-07-16 19:44:40,52.85,-102.3842,89.58,26,19,7.65
441,Smila,UA,2021-07-16 19:44:41,49.2224,31.8871,73.85,77,92,4.12
442,Troitskoye,RU,2021-07-16 19:44:41,52.9821,84.6757,58.39,85,92,8.9
443,Ciudad Bolivar,VE,2021-07-16 19:44:41,8.1222,-63.5497,87.19,57,98,6.71
444,Richards Bay,ZA,2021-07-16 19:44:42,-28.783,32.0377,58.24,72,0,6.82
445,Fomboni,KM,2021-07-16 19:44:42,-12.28,43.7425,77.43,65,9,14.03
446,Helong,CN,2021-07-16 19:44:42,42.5397,128.9972,67.53,96,8,2.59
447,Birjand,IR,2021-07-16 19:44:43,32.8663,59.2211,86.47,19,40,13.8
448,Camana,PE,2021-07-16 19:44:43,-16.6228,-72.7111,63.45,78,57,9.4
449,Bismarck,US,2021-07-16 19:41:24,46.8083,-100.7837,92.88,61,1,17.27
450,Sambava,MG,2021-07-16 19:44:44,-14.2667,50.1667,69.08,83,98,13.2
451,Ulladulla,AU,2021-07-16 19:44:44,-35.35,150.4667,54.88,62,98,11.5
452,Chara,RU,2021-07-16 19:44:44,56.9064,118.2631,58.42,73,0,1.54
453,Rawson,AR,2021-07-16 19:43:06,-43.3002,-65.1023,51.39,37,0,16.89
454,Trapani,IT,2021-07-16 19:44:45,37.8333,12.6667,77.09,78,40,16.11
455,Bayanday,RU,2021-07-16 19:44:45,53.0661,105.5139,61.7,62,100,2.44
456,Jinchang,CN,2021-07-16 19:44:46,38.4953,102.1739,77.34,40,0,6.26
457,Verkhnyaya Toyma,RU,2021-07-16 19:44:46,62.2349,44.9985,63.55,69,93,2.1
458,Destin,US,2021-07-16 19:44:31,30.3935,-86.4958,92.43,68,1,8.05
459,Kribi,CM,2021-07-16 19:44:46,2.95,9.9167,76.24,86,100,7.18
460,Port Shepstone,ZA,2021-07-16 19:44:47,-30.7414,30.455,56.77,65,0,8.95
461,Half Moon Bay,US,2021-07-16 19:44:47,37.4636,-122.4286,85.05,65,1,1.01
462,Cayenne,GF,2021-07-16 19:44:48,4.9333,-52.3333,83.08,75,90,3.0
463,Kokubu,JP,2021-07-16 19:44:48,31.7333,130.7667,74.16,94,100,8.01
464,Srisailam,IN,2021-07-16 19:44:48,16.0833,78.8667,72.84,94,100,7.61
465,Qaqortoq,GL,2021-07-16 19:44:49,60.7167,-46.0333,59.5,68,100,2.28
466,Campbellton,CA,2021-07-16 19:44:49,48.0075,-66.6727,75.65,50,81,13.6
467,Ouadda,CF,2021-07-16 19:44:50,8.0777,22.4007,71.49,87,100,2.21
468,Axim,GH,2021-07-16 19:44:50,4.8699,-2.2405,75.96,89,92,11.65
469,Tondano,ID,2021-07-16 19:44:50,1.3038,124.9112,64.49,96,100,2.26
470,Codrington,AU,2021-07-16 19:44:51,-38.2667,141.9667,47.73,91,90,14.14
471,Vangaindrano,MG,2021-07-16 19:44:51,-23.35,47.6,67.5,89,99,4.59
472,Mount Isa,AU,2021-07-16 19:44:51,-20.7333,139.5,44.37,53,51,0.0
473,Isangel,VU,2021-07-16 19:44:52,-19.55,169.2667,76.14,90,26,7.31
474,Ashington,GB,2021-07-16 19:44:52,50.9331,-0.3909,74.43,52,0,8.05
475,Carnduff,CA,2021-07-16 19:44:53,49.1667,-101.8009,86.38,44,0,9.69
476,Vesoul,FR,2021-07-16 19:44:53,47.5833,5.8333,68.81,96,53,11.1
477,Karaton,ID,2021-07-16 19:44:53,-6.3424,106.1045,79.95,90,86,1.81
478,Nedjo,ET,2021-07-16 19:44:54,9.5046,35.5019,58.46,91,100,0.16
479,Waipawa,NZ,2021-07-16 19:44:54,-41.4122,175.5153,54.45,84,100,21.79
480,Suez,EG,2021-07-16 19:44:54,29.9737,32.5263,81.3,57,0,10.8
481,Itarema,BR,2021-07-16 19:44:55,-2.9248,-39.9167,81.41,72,1,13.89
482,Doha,QA,2021-07-16 19:44:55,25.2867,51.5333,97.11,59,0,12.66
483,Leh,IN,2021-07-16 19:44:56,34.1667,77.5833,65.93,34,0,5.84
484,Yar-Sale,RU,2021-07-16 19:44:56,66.8333,70.8333,45.82,66,96,10.04
485,Buala,SB,2021-07-16 19:44:56,-8.145,159.5921,80.2,86,36,9.17
486,Valparaiso,CL,2021-07-16 19:44:57,-33.0393,-71.6273,65.84,55,0,17.27
487,Mashhad,IR,2021-07-16 19:44:57,36.297,59.6062,77.14,36,20,4.61
488,Portmore,JM,2021-07-16 19:44:57,17.9702,-76.8672,87.76,66,20,23.02
489,Phan Thiet,VN,2021-07-16 19:44:58,10.9333,108.1,77.16,85,85,8.37
490,Soto La Marina,MX,2021-07-16 19:44:58,23.7667,-98.2167,91.94,49,100,16.73
491,Airai,TL,2021-07-16 19:44:59,-8.9266,125.4092,55.4,62,42,2.51
492,Gambela,ET,2021-07-16 19:44:59,8.25,34.5833,73.15,80,100,3.0
493,Kieta,PG,2021-07-16 19:44:59,-6.2167,155.6333,79.72,82,100,6.53
494,Broken Hill,AU,2021-07-16 19:45:00,-31.95,141.4333,46.11,81,75,16.11
495,Phuntsholing,BT,2021-07-16 19:45:00,26.8516,89.3884,78.1,92,100,1.7
496,Puerto Carreno,CO,2021-07-16 19:45:00,6.189,-67.4859,83.8,70,72,8.68
497,Udachnyy,RU,2021-07-16 19:45:01,66.4167,112.4,61.39,70,17,13.8
498,Muisne,EC,2021-07-16 19:45:01,0.6,-80.0333,86.11,83,100,13.42
499,Agirish,RU,2021-07-16 19:45:01,61.9247,63.0231,57.13,59,83,3.98
500,Marion,US,2021-07-16 19:44:33,39.7684,-86.1555,81.39,84,75,6.91
501,Palimbang,PH,2021-07-16 19:45:02,6.2106,124.1894,77.94,81,100,4.41
502,Shalya,RU,2021-07-16 19:45:02,57.2471,58.7298,58.32,92,100,1.41
503,Elverum,NO,2021-07-16 19:45:03,60.8819,11.5623,74.05,76,0,4.05
504,Araguaina,BR,2021-07-16 19:45:03,-7.1911,-48.2072,95.92,24,79,3.56
505,Pratapgarh,IN,2021-07-16 19:45:04,24.0333,74.7833,85.24,64,84,11.88
506,Hay River,CA,2021-07-16 19:44:50,60.8156,-115.7999,55.36,54,75,3.44
507,Tessalit,ML,2021-07-16 19:45:04,20.1986,1.0114,99.57,9,4,11.63
508,Krasnoselkup,RU,2021-07-16 19:45:05,65.7,82.4667,52.65,89,100,12.57
509,Batagay,RU,2021-07-16 19:45:05,67.6333,134.6333,60.69,51,83,3.13
510,San Vicente,AR,2021-07-16 19:45:05,-26.6167,-54.1333,63.48,58,1,1.9
511,Sibolga,ID,2021-07-16 19:45:06,1.7427,98.7792,75.79,83,97,3.49
512,Okha,RU,2021-07-16 19:45:06,53.5739,142.9478,64.92,98,74,10.69
513,Laguna,US,2021-07-16 19:45:07,38.421,-121.4238,97.43,45,1,3.0
514,Stribro,CZ,2021-07-16 19:45:07,49.7529,13.0041,71.04,87,58,5.28
515,Praya,CV,2021-07-16 19:45:07,14.9215,-23.5087,79.34,65,20,9.22
516,Hofn,IS,2021-07-16 19:45:08,64.2539,-15.2082,56.41,64,5,10.0
517,Yoichi,JP,2021-07-16 19:45:08,43.2039,140.7703,66.22,92,99,5.79
518,Koungou,YT,2021-07-16 19:45:08,-12.7336,45.2042,76.71,65,0,9.22
519,Anloga,GH,2021-07-16 19:45:09,5.7947,0.8973,77.22,89,100,16.73
520,Tranas,SE,2021-07-16 19:45:09,58.0372,14.9782,70.79,80,0,2.84
521,Yazman,PK,2021-07-16 19:45:10,29.1212,71.7446,100.4,37,59,4.12
522,Natal,BR,2021-07-16 19:45:10,-5.795,-35.2094,83.05,69,75,12.66
523,San Fernando,PH,2021-07-16 19:45:10,15.0286,120.6898,78.89,89,98,3.42
524,Komsomolskiy,UZ,2021-07-16 19:45:11,40.4272,71.7189,65.62,88,75,4.61
525,Caborca,MX,2021-07-16 19:45:11,30.5838,-111.101,87.22,47,83,12.33
526,Cayhagan,PH,2021-07-16 19:45:12,9.6697,122.4256,78.66,87,100,10.69
527,San Jeronimo,PE,2021-07-16 19:45:12,-11.9472,-75.2829,63.82,30,3,2.46
528,Muli,MV,2021-07-16 19:45:13,2.9167,73.5667,82.81,75,12,9.55
529,Seoul,KR,2021-07-16 19:45:13,37.5683,126.9778,76.6,89,40,3.44
530,Srandakan,ID,2021-07-16 19:45:13,-7.9386,110.2506,72.21,88,46,4.56
531,Shahr-E Kord,IR,2021-07-16 19:45:14,32.3256,50.8644,71.37,18,0,4.61
532,Ponta Delgada,PT,2021-07-16 19:45:14,37.7333,-25.6667,72.32,78,20,8.05
533,Antalaha,MG,2021-07-16 19:45:15,-14.9003,50.2788,68.7,79,99,8.19
534,Presidencia Roque Saenz Pena,AR,2021-07-16 19:45:15,-26.7852,-60.4388,69.12,38,0,3.49
535,Ahipara,NZ,2021-07-16 19:45:15,-35.1667,173.1667,61.5,93,100,23.44
536,Odessa,UA,2021-07-16 19:45:16,46.4775,30.7326,76.93,47,0,2.24
537,Okakarara,NA,2021-07-16 19:45:16,-20.5833,17.4333,54.16,45,6,5.99
538,Lastoursville,GA,2021-07-16 19:45:17,-0.8143,12.7287,79.45,56,100,3.38
539,Farafenni,GM,2021-07-16 19:45:17,13.5667,-15.6,88.32,57,64,11.61
540,Tevriz,RU,2021-07-16 19:45:17,57.509,72.4042,52.21,98,100,5.19
541,Carutapera,BR,2021-07-16 19:45:18,-1.195,-46.02,77.41,90,23,8.48
542,Conceicao Do Araguaia,BR,2021-07-16 19:45:18,-8.2578,-49.2647,95.13,34,0,6.02
543,Port Blair,IN,2021-07-16 19:45:18,11.6667,92.75,81.18,83,100,10.69
544,Aksu,CN,2021-07-16 19:45:19,41.1231,80.2644,77.23,44,44,8.34
545,Karasjok,NO,2021-07-16 19:45:19,69.4719,25.5112,55.51,81,39,2.37
546,Rawah,IQ,2021-07-16 19:45:20,34.4816,41.9093,95.41,18,0,8.08
547,Bengkulu,ID,2021-07-16 19:45:20,-3.8004,102.2655,76.96,81,76,3.15
548,Nanakuli,US,2021-07-16 19:43:14,21.3906,-158.1547,82.35,71,75,12.66
549,Mafinga,TZ,2021-07-16 19:45:20,-7.25,35.0667,67.48,39,3,7.76
550,Prabumulih,ID,2021-07-16 19:45:21,-3.45,104.25,71.69,96,56,2.91
551,Immenstadt,DE,2021-07-16 19:45:21,47.561,10.2199,62.44,76,83,2.51
552,Benguela,AO,2021-07-16 19:45:22,-12.5763,13.4055,69.6,89,71,4.25
553,Garavuti,TJ,2021-07-16 19:45:22,37.5672,68.4469,83.05,23,58,4.03
554,Bara,NG,2021-07-16 19:45:22,10.3744,10.7288,78.39,74,96,8.55
555,Teruel,ES,2021-07-16 19:45:23,40.6667,-0.6667,74.68,38,0,3.31
556,Tual,ID,2021-07-16 19:45:23,-5.6667,132.75,80.44,83,100,16.64
557,Batangafo,CF,2021-07-16 19:45:23,7.3008,18.2833,73.0,91,69,1.92
558,Banjar,ID,2021-07-16 19:45:24,-8.19,114.9675,78.66,89,100,6.11
559,Tigil,RU,2021-07-16 19:45:24,57.8,158.6667,60.08,85,100,5.17
560,Zabid,YE,2021-07-16 19:45:24,14.1951,43.3152,93.45,39,100,13.49
561,Rongcheng,CN,2021-07-16 19:45:25,30.634,117.8517,76.69,90,100,3.09
562,Payo,ID,2021-07-16 19:45:25,-3.7508,103.6372,71.02,96,12,2.48
